[
  {
    "name": "Acropolis of Lindos",
    "lat": 36.09154,
    "lon": 28.08854,
    "category": "ruins",
    "country": "Greece",
    "local_name": "Akropoli tis Lindou",
    "note": "Hilltop citadel with a 4th-century BC Temple of Athena",
    "image": "https://upload.wikimedia.org/wikipedia/commons/thumb/e/e9/20210826-Lindos-DJI_0205.jpg/1280px-20210826-Lindos-DJI_0205.jpg",
    "sources": [
      "https://en.wikipedia.org/wiki/Lindos"
    ]
  },
  {
    "name": "Akbarieh Garden",
    "lat": 32.85306,
    "lon": 59.22806,
    "category": "garden",
    "country": "Iran",
    "local_name": "Bagh-e Akbarieh",
    "note": "Qajar Persian garden in Birjand, eastern Iran",
    "image": "https://upload.wikimedia.org/wikipedia/commons/thumb/5/5b/%D9%85%D8%AC%D9%85%D9%88%D8%B9%D9%87_%D8%A7%DA%A9%D8%A8%D8%B1%DB%8C%D9%87%D8%8C_%D9%85%D8%B3%D8%AC%D8%AF_%D9%88_%D8%B9%D9%85%D8%A7%D8%B1%D8%AA_%D9%88_%D8%A8%D8%A7%D8%BA.jpg/1280px-%D9%85%D8%AC%D9%85%D9%88%D8%B9%D9%87_%D8%A7%DA%A9%D8%A8%D8%B1%DB%8C%D9%87%D8%8C_%D9%85%D8%B3%D8%AC%D8%AF_%D9%88_%D8%B9%D9%85%D8%A7%D8%B1%D8%AA_%D9%88_%D8%A8%D8%A7%D8%BA.jpg",
    "sources": [
      "https://en.wikipedia.org/wiki/Akbarieh_Garden"
    ]
  },
  {
    "name": "Ali Qapu",
    "lat": 32.65722,
    "lon": 51.67667,
    "category": "palace",
    "country": "Iran",
    "local_name": "عالی‌قاپو",
    "note": "Safavid imperial palace on Naqsh-e Jahan, Isfahan",
    "image": "https://upload.wikimedia.org/wikipedia/commons/thumb/c/c9/%C4%80l%C4%AB_Q%C4%81p%C5%AB_in_golden_time.jpg/1280px-%C4%80l%C4%AB_Q%C4%81p%C5%AB_in_golden_time.jpg",
    "sources": [
      "https://en.wikipedia.org/wiki/Ali_Qapu"
    ]
  },
  {
    "name": "Ali-Sadr Cave",
    "lat": 35.30161,
    "lon": 48.30388,
    "category": "cave",
    "country": "Iran",
    "local_name": "Ghar-e Ali Sadr",
    "note": "Water cave with navigable underground lakes, Hamedan",
    "image": "https://upload.wikimedia.org/wikipedia/commons/thumb/5/59/Ali_Sadr_Cave%2C_Hamadan_Province%2C_Iran%2Csiamak_sabet.jpg/1280px-Ali_Sadr_Cave%2C_Hamadan_Province%2C_Iran%2Csiamak_sabet.jpg",
    "sources": [
      "https://en.wikipedia.org/wiki/Ali-Sadr_Cave"
    ]
  },
  {
    "name": "Alte Nationalgalerie",
    "lat": 52.52083,
    "lon": 13.39806,
    "category": "museum",
    "country": "Germany",
    "note": "19th-century art museum on Berlin's Museum Island",
    "image": "https://upload.wikimedia.org/wikipedia/commons/thumb/2/23/AlteNationalgalerie_1a.jpg/1280px-AlteNationalgalerie_1a.jpg",
    "sources": [
      "https://en.wikipedia.org/wiki/Alte_Nationalgalerie"
    ]
  },
  {
    "name": "Altes Museum",
    "lat": 52.51944,
    "lon": 13.39833,
    "category": "museum",
    "country": "Germany",
    "note": "Schinkel's Neoclassical museum on Berlin's Museum Island",
    "image": "https://upload.wikimedia.org/wikipedia/commons/thumb/f/f5/Altes_Museum_%28Berlin%29_%286339770591%29.jpg/1280px-Altes_Museum_%28Berlin%29_%286339770591%29.jpg",
    "sources": [
      "https://en.wikipedia.org/wiki/Altes_Museum"
    ]
  },
  {
    "name": "Ancient Thera",
    "lat": 36.36464,
    "lon": 25.47798,
    "category": "archaeological-site",
    "country": "Greece",
    "local_name": "Archaia Thira",
    "note": "Ancient city ruins on Mesa Vouno, founded 9th c. BC",
    "image": "https://upload.wikimedia.org/wikipedia/commons/thumb/1/1f/Santorini_ancient_thera_1.jpg/1280px-Santorini_ancient_thera_1.jpg",
    "sources": [
      "https://en.wikipedia.org/wiki/Ancient_Thera"
    ]
  },
  {
    "name": "Bam Citadel",
    "lat": 29.11694,
    "lon": 58.36861,
    "category": "castle",
    "country": "Iran",
    "local_name": "Arg-e Bam",
    "note": "Massive adobe citadel of Bam, Silk Road landmark",
    "image": "https://upload.wikimedia.org/wikipedia/commons/thumb/0/03/010213-Kerman-IMG_0371-2.jpg/1280px-010213-Kerman-IMG_0371-2.jpg",
    "sources": [
      "https://en.wikipedia.org/wiki/Arg-e_Bam"
    ]
  },
  {
    "name": "Berlin Cathedral",
    "lat": 52.51917,
    "lon": 13.40111,
    "category": "religious",
    "country": "Germany",
    "local_name": "Berliner Dom",
    "note": "Domed Protestant cathedral on Berlin's Museum Island",
    "image": "https://upload.wikimedia.org/wikipedia/commons/thumb/8/84/141227_Berliner_Dom.jpg/1280px-141227_Berliner_Dom.jpg",
    "sources": [
      "https://en.wikipedia.org/wiki/Berlin_Cathedral"
    ]
  },
  {
    "name": "Bode Museum",
    "lat": 52.52194,
    "lon": 13.39472,
    "category": "museum",
    "country": "Germany",
    "local_name": "Bode-Museum",
    "note": "Sculpture and Byzantine art on Berlin's Museum Island",
    "image": "https://upload.wikimedia.org/wikipedia/commons/thumb/c/c9/Berlin_Museumsinsel_Fernsehturm.jpg/1280px-Berlin_Museumsinsel_Fernsehturm.jpg",
    "sources": [
      "https://en.wikipedia.org/wiki/Bode_Museum"
    ]
  },
  {
    "name": "Borazjan Castle",
    "lat": 29.26725,
    "lon": 51.20844,
    "category": "castle",
    "country": "Iran",
    "local_name": "Dezh-e Borazjan",
    "note": "Qajar fortified stone caravanserai, Bushehr province",
    "image": "https://upload.wikimedia.org/wikipedia/commons/thumb/c/c0/%D9%86%D9%85%D8%A7%DB%8C_%D8%A8%DB%8C%D8%B1%D9%88%D9%86%DB%8C_%DA%A9%D8%A7%D8%B1%D9%88%D8%A7%D9%86%D8%B3%D8%B1%D8%A7%DB%8C_%D9%85%D8%B4%DB%8C%D8%B1%D8%A7%D9%84%D9%85%D9%84%DA%A9_%D8%A8%D8%B1%D8%A7%D8%B2%D8%AC%D8%A7%D9%86.jpg/1280px-%D9%86%D9%85%D8%A7%DB%8C_%D8%A8%DB%8C%D8%B1%D9%88%D9%86%DB%8C_%DA%A9%D8%A7%D8%B1%D9%88%D8%A7%D9%86%D8%B3%D8%B1%D8%A7%DB%8C_%D9%85%D8%B4%DB%8C%D8%B1%D8%A7%D9%84%D9%85%D9%84%DA%A9_%D8%A8%D8%B1%D8%A7%D8%B2%D8%AC%D8%A7%D9%86.jpg",
    "sources": [
      "https://en.wikipedia.org/wiki/Borazjan_Castle"
    ]
  },
  {
    "name": "Cathedral of Christ the Saviour",
    "lat": 55.74444,
    "lon": 37.60556,
    "category": "religious",
    "country": "Russia",
    "local_name": "Khram Khrista Spasitelya",
    "note": "Russian Orthodox cathedral on the Moskva, Moscow",
    "image": "https://upload.wikimedia.org/wikipedia/commons/thumb/d/d6/Moscow_July_2011-7a.jpg/1280px-Moscow_July_2011-7a.jpg",
    "sources": [
      "https://en.wikipedia.org/wiki/Cathedral_of_Christ_the_Saviour"
    ]
  },
  {
    "name": "Chefchaouen",
    "lat": 35.17139,
    "lon": -5.26972,
    "category": "city",
    "country": "Morocco",
    "local_name": "شفشاون",
    "note": "Blue-washed medina town in the Rif Mountains",
    "image": "https://upload.wikimedia.org/wikipedia/commons/thumb/2/25/Chefchaouen_%2852189357475%29.jpg/1280px-Chefchaouen_%2852189357475%29.jpg",
    "sources": [
      "https://en.wikipedia.org/wiki/Chefchaouen"
    ]
  },
  {
    "name": "Chehel Sotoun",
    "lat": 32.6575,
    "lon": 51.67222,
    "category": "garden",
    "country": "Iran",
    "local_name": "Bagh-e Chehel Sotoun",
    "note": "17th-c. Safavid pavilion of 'forty columns', Isfahan",
    "image": "https://upload.wikimedia.org/wikipedia/commons/thumb/4/4e/Chehel_Sotoon.jpg/1280px-Chehel_Sotoon.jpg",
    "sources": [
      "https://en.wikipedia.org/wiki/Chehel_Sotoun"
    ]
  },
  {
    "name": "Chillon Castle",
    "lat": 46.4142,
    "lon": 6.9273,
    "category": "castle",
    "country": "Switzerland",
    "local_name": "Château de Chillon",
    "note": "Lake Geneva island fortress, subject of Byron's poem",
    "image": "https://upload.wikimedia.org/wikipedia/commons/thumb/4/48/001_Chateau_de_Chillon_and_Dents_du_Midi_Photo_by_Giles_Laurent.jpg/1280px-001_Chateau_de_Chillon_and_Dents_du_Midi_Photo_by_Giles_Laurent.jpg",
    "sources": [
      "https://en.wikipedia.org/wiki/Ch%C3%A2teau_de_Chillon"
    ]
  },
  {
    "name": "Chogha Zanbil",
    "lat": 32.00833,
    "lon": 48.52083,
    "category": "ruins",
    "country": "Iran",
    "local_name": "چغازنبيل",
    "note": "13th-c. BC Elamite ziggurat, southwest Iran",
    "image": "https://upload.wikimedia.org/wikipedia/commons/thumb/d/d5/%D8%B2%DB%8C%DA%AF%D9%88%D8%B1%D8%A7%D8%AA_%DA%86%D8%BA%D8%A7_%D8%B2%D9%86%D8%A8%DB%8C%D9%84.jpg/1280px-%D8%B2%DB%8C%DA%AF%D9%88%D8%B1%D8%A7%D8%AA_%DA%86%D8%BA%D8%A7_%D8%B2%D9%86%D8%A8%DB%8C%D9%84.jpg",
    "sources": [
      "https://en.wikipedia.org/wiki/Chogha_Zanbil"
    ]
  },
  {
    "name": "Dayr-e Gachin",
    "lat": 35.0583,
    "lon": 51.4202,
    "category": "monument",
    "country": "Iran",
    "local_name": "Karvansaray-e Deir-e Gachin",
    "note": "Sasanian caravanserai rebuilt by Safavids, Qom",
    "image": "https://upload.wikimedia.org/wikipedia/commons/thumb/9/9a/%DA%A9%D8%A7%D8%B1%D9%88%D8%A7%D9%86%D8%B3%D8%B1%D8%A7%DB%8C_%D8%AF%DB%8C%D8%B1_%DA%AF%DA%86%DB%8C%D9%86_%D8%A7%D8%B3%D8%AA%D8%A7%D9%86_%D9%82%D9%85_-_%D9%88%DB%8C%DA%A9%DB%8C_%D8%AF%D9%88%D8%B3%D8%AA%D8%AF%D8%A7%D8%B1_%DB%8C%D8%A7%D8%AF%D9%85%D8%A7%D9%86_2018_21.jpg/1280px-%DA%A9%D8%A7%D8%B1%D9%88%D8%A7%D9%86%D8%B3%D8%B1%D8%A7%DB%8C_%D8%AF%DB%8C%D8%B1_%DA%AF%DA%86%DB%8C%D9%86_%D8%A7%D8%B3%D8%AA%D8%A7%D9%86_%D9%82%D9%85_-_%D9%88%DB%8C%DA%A9%DB%8C_%D8%AF%D9%88%D8%B3%D8%AA%D8%AF%D8%A7%D8%B1_%DB%8C%D8%A7%D8%AF%D9%85%D8%A7%D9%86_2018_21.jpg",
    "sources": [
      "https://en.wikipedia.org/wiki/Dayr-e_Gachin"
    ]
  },
  {
    "name": "Dome of Soltaniyeh",
    "lat": 36.43397,
    "lon": 48.79603,
    "category": "monument",
    "country": "Iran",
    "local_name": "Gonbad-e Soltaniyeh",
    "note": "14th-c. Ilkhanid mausoleum, northwest Iran",
    "image": "https://upload.wikimedia.org/wikipedia/commons/thumb/9/93/Gonbad_Soltaniye.jpg/1280px-Gonbad_Soltaniye.jpg",
    "sources": [
      "https://en.wikipedia.org/wiki/Dome_of_Soltaniyeh"
    ]
  },
  {
    "name": "Door of No Return",
    "lat": 14.66778,
    "lon": -17.39722,
    "category": "monument",
    "country": "Senegal",
    "local_name": "Porte du Voyage sans Retour",
    "note": "Doorway from the House of Slaves on Gorée Island",
    "image": "https://upload.wikimedia.org/wikipedia/commons/thumb/1/18/La_maison_des_esclaves.jpg/1280px-La_maison_des_esclaves.jpg",
    "sources": [
      "https://en.wikipedia.org/wiki/House_of_Slaves"
    ]
  },
  {
    "name": "Dowlatabad Garden",
    "lat": 31.90278,
    "lon": 54.35222,
    "category": "garden",
    "country": "Iran",
    "local_name": "Bagh-e Dowlatabad",
    "note": "18th-c. Persian garden with giant windcatcher, Yazd",
    "image": "https://upload.wikimedia.org/wikipedia/commons/thumb/0/06/Dolat_Abad_Garden_-_Pavilion_01.jpg/1280px-Dolat_Abad_Garden_-_Pavilion_01.jpg",
    "sources": [
      "https://en.wikipedia.org/wiki/Dowlatabad_Garden"
    ]
  },
  {
    "name": "Egyptian Museum",
    "lat": 45.0686,
    "lon": 7.6842,
    "category": "museum",
    "country": "Italy",
    "local_name": "Museo Egizio",
    "note": "Largest Egyptian collection outside Cairo",
    "image": "https://upload.wikimedia.org/wikipedia/commons/thumb/7/76/Museo_Egizio_e_Galleria_sabauda%2C_Torino.jpg/1280px-Museo_Egizio_e_Galleria_sabauda%2C_Torino.jpg",
    "sources": [
      "https://en.wikipedia.org/wiki/Museo_Egizio"
    ]
  },
  {
    "name": "Eram Garden",
    "lat": 29.63583,
    "lon": 52.52528,
    "category": "garden",
    "country": "Iran",
    "local_name": "Bagh-e Eram",
    "note": "Qajar Persian garden with cypress avenue, Shiraz",
    "image": "https://upload.wikimedia.org/wikipedia/commons/thumb/1/12/Bagh_Eram_Shiraz.jpg/1280px-Bagh_Eram_Shiraz.jpg",
    "sources": [
      "https://en.wikipedia.org/wiki/Eram_Garden"
    ]
  },
  {
    "name": "Fes el-Bali",
    "lat": 34.0625,
    "lon": -4.9725,
    "category": "city",
    "country": "Morocco",
    "local_name": "فاس البالي",
    "note": "Walled medina of Fez, world's largest car-free area",
    "image": "https://upload.wikimedia.org/wikipedia/commons/thumb/5/5d/Fes_Bab_Bou_Jeloud_2011.jpg/1280px-Fes_Bab_Bou_Jeloud_2011.jpg",
    "sources": [
      "https://en.wikipedia.org/wiki/Fes_el_Bali"
    ]
  },
  {
    "name": "Fin Garden",
    "lat": 33.94638,
    "lon": 51.37259,
    "category": "garden",
    "country": "Iran",
    "local_name": "Bagh-e Fin",
    "note": "Safavid Persian garden with spring-fed pools, Kashan",
    "image": "https://upload.wikimedia.org/wikipedia/commons/thumb/b/b0/Jard%C3%ADn_de_Fin%2C_Kashan%2C_Ir%C3%A1n%2C_2016-09-19%2C_DD_22.jpg/1280px-Jard%C3%ADn_de_Fin%2C_Kashan%2C_Ir%C3%A1n%2C_2016-09-19%2C_DD_22.jpg",
    "sources": [
      "https://en.wikipedia.org/wiki/Fin_Garden"
    ]
  },
  {
    "name": "Fira",
    "lat": 36.41907,
    "lon": 25.43224,
    "category": "city",
    "country": "Greece",
    "local_name": "Φηρά",
    "note": "Cliff-perched capital of Santorini on the caldera rim",
    "image": "https://upload.wikimedia.org/wikipedia/commons/thumb/e/e9/Santorini_Fira3_tango7174.jpg/1280px-Santorini_Fira3_tango7174.jpg",
    "sources": [
      "https://en.wikipedia.org/wiki/Fira"
    ]
  },
  {
    "name": "German Historical Museum",
    "lat": 52.51806,
    "lon": 13.39694,
    "category": "museum",
    "country": "Germany",
    "local_name": "Deutsches Historisches Museum",
    "note": "German history museum in Berlin's Baroque Zeughaus",
    "image": "https://upload.wikimedia.org/wikipedia/commons/thumb/f/f4/Zeughaus_Berlin_2012.jpg/1280px-Zeughaus_Berlin_2012.jpg",
    "sources": [
      "https://en.wikipedia.org/wiki/Deutsches_Historisches_Museum"
    ]
  },
  {
    "name": "Golestan Palace",
    "lat": 35.67972,
    "lon": 51.42028,
    "category": "palace",
    "country": "Iran",
    "local_name": "Kakh-e Golestan",
    "note": "Qajar royal palace complex in central Tehran",
    "image": "https://upload.wikimedia.org/wikipedia/commons/thumb/a/a9/Palais_du_Golestan%2C_T%C3%A9h%C3%A9ran_%285%29.jpg/1280px-Palais_du_Golestan%2C_T%C3%A9h%C3%A9ran_%285%29.jpg",
    "sources": [
      "https://en.wikipedia.org/wiki/Golestan_Palace"
    ]
  },
  {
    "name": "Heidelberg Castle",
    "lat": 49.4104,
    "lon": 8.7153,
    "category": "castle",
    "country": "Germany",
    "local_name": "Heidelberger Schloss",
    "note": "Romantic ruin overlooking the Neckar valley",
    "image": "https://upload.wikimedia.org/wikipedia/commons/thumb/1/1d/Heidelberg-2726936.jpg/1280px-Heidelberg-2726936.jpg",
    "sources": [
      "https://en.wikipedia.org/wiki/Heidelberg_Castle"
    ]
  },
  {
    "name": "Hermitage Museum",
    "lat": 59.9406,
    "lon": 30.3136,
    "category": "museum",
    "country": "Russia",
    "local_name": "Gosudarstvenny Ermitazh",
    "note": "Imperial art collection in Saint Petersburg's Winter Palace",
    "image": "https://upload.wikimedia.org/wikipedia/commons/thumb/7/74/RUS-2016-Aerial-SPB-Winter_Palace_%28crop%29.jpg/1280px-RUS-2016-Aerial-SPB-Winter_Palace_%28crop%29.jpg",
    "sources": [
      "https://en.wikipedia.org/wiki/Hermitage_Museum"
    ]
  },
  {
    "name": "Humboldt Forum",
    "lat": 52.5175,
    "lon": 13.40278,
    "category": "museum",
    "country": "Germany",
    "note": "Non-European art in Berlin's reconstructed palace",
    "image": "https://upload.wikimedia.org/wikipedia/commons/thumb/0/0c/Berlin-BerlinerSchloss-6-Asio.JPG/1280px-Berlin-BerlinerSchloss-6-Asio.JPG",
    "sources": [
      "https://en.wikipedia.org/wiki/Humboldt_Forum"
    ]
  },
  {
    "name": "Imam Reza Shrine",
    "lat": 36.288,
    "lon": 59.6157,
    "category": "religious",
    "country": "Iran",
    "local_name": "Haram-e Emam Reza",
    "note": "Tomb of 8th Shia Imam, vast pilgrimage complex, Mashhad",
    "image": "https://upload.wikimedia.org/wikipedia/commons/thumb/3/38/%D8%B5%D8%AD%D9%86_%D8%A7%DB%8C%D9%88%D8%A7%D9%86_%D8%B7%D9%84%D8%A7_%D9%88_%D8%B3%D9%82%D8%A7%D8%AE%D8%A7%D9%86%D9%87.jpg/1280px-%D8%B5%D8%AD%D9%86_%D8%A7%DB%8C%D9%88%D8%A7%D9%86_%D8%B7%D9%84%D8%A7_%D9%88_%D8%B3%D9%82%D8%A7%D8%AE%D8%A7%D9%86%D9%87.jpg",
    "sources": [
      "https://en.wikipedia.org/wiki/Imam_Reza_shrine"
    ]
  },
  {
    "name": "Jamalabad Caravanserai",
    "lat": 37.27189,
    "lon": 47.84306,
    "category": "monument",
    "country": "Iran",
    "local_name": "Karvansaray-e Jamalabad",
    "note": "Ilkhanid caravanserai near Mianeh, northwest Iran",
    "image": "https://upload.wikimedia.org/wikipedia/commons/thumb/b/ba/Jamal_abad_caravansary.jpg/1280px-Jamal_abad_caravansary.jpg",
    "sources": [
      "https://en.wikipedia.org/wiki/Jamalabad_Caravanserai"
    ]
  },
  {
    "name": "Jameh Mosque of Isfahan",
    "lat": 32.66972,
    "lon": 51.68528,
    "category": "religious",
    "country": "Iran",
    "local_name": "Masjed-e Jameh Esfahan",
    "note": "Friday mosque of Isfahan, founder of four-iwan plan",
    "image": "https://upload.wikimedia.org/wikipedia/commons/thumb/5/54/20180301124354_IMG_4179And6more_Interior_3.jpg/1280px-20180301124354_IMG_4179And6more_Interior_3.jpg",
    "sources": [
      "https://en.wikipedia.org/wiki/Jameh_Mosque_of_Isfahan"
    ]
  },
  {
    "name": "Kaputas Beach",
    "lat": 36.22892,
    "lon": 29.44912,
    "category": "beach",
    "country": "Turkey",
    "local_name": "Kaputaş Plajı",
    "note": "Narrow canyon beach between cliffs",
    "image": "https://upload.wikimedia.org/wikipedia/commons/thumb/9/9b/Turkiye_Antalya_Kaputa%C5%9F_Plaj%C4%B1.jpg/1280px-Turkiye_Antalya_Kaputa%C5%9F_Plaj%C4%B1.jpg",
    "sources": [
      "https://en.wikipedia.org/wiki/Kaputas_Beach"
    ]
  },
  {
    "name": "Lenin's Mausoleum",
    "lat": 55.75361,
    "lon": 37.61972,
    "category": "monument",
    "country": "Russia",
    "local_name": "Mavzoley Lenina",
    "note": "Granite mausoleum housing Lenin's body, Red Square",
    "image": "https://upload.wikimedia.org/wikipedia/commons/thumb/f/f7/Mauzoleumlenina_%28cropped%29.jpeg/1280px-Mauzoleumlenina_%28cropped%29.jpeg",
    "sources": [
      "https://en.wikipedia.org/wiki/Lenin%27s_Mausoleum"
    ]
  },
  {
    "name": "Neues Museum",
    "lat": 52.52056,
    "lon": 13.39778,
    "category": "museum",
    "country": "Germany",
    "note": "Berlin's Egyptian and prehistory museum on Museum Island",
    "image": "https://upload.wikimedia.org/wikipedia/commons/thumb/d/dd/Berlin_Neues_Museum_001.JPG/1280px-Berlin_Neues_Museum_001.JPG",
    "sources": [
      "https://en.wikipedia.org/wiki/Neues_Museum"
    ]
  },
  {
    "name": "Neuschwanstein Castle",
    "lat": 47.5577,
    "lon": 10.7496,
    "category": "castle",
    "country": "Germany",
    "local_name": "Schloss Neuschwanstein",
    "note": "Ludwig II's 19th-c. fairy-tale castle in Bavaria",
    "image": "https://upload.wikimedia.org/wikipedia/commons/thumb/f/f8/Schloss_Neuschwanstein_2013.jpg/1280px-Schloss_Neuschwanstein_2013.jpg",
    "sources": [
      "https://en.wikipedia.org/wiki/Neuschwanstein_Castle"
    ]
  },
  {
    "name": "Palace of the Grand Master",
    "lat": 36.44578,
    "lon": 28.2241,
    "category": "castle",
    "country": "Greece",
    "local_name": "Palati tou Megalou Magistrou",
    "note": "Medieval Knights Hospitaller fortress in Rhodes Old Town",
    "image": "https://upload.wikimedia.org/wikipedia/commons/thumb/f/f1/Palace_of_the_Grand_Master_of_the_Knights_of_Rhodes_%289451928431%29.jpg/1280px-Palace_of_the_Grand_Master_of_the_Knights_of_Rhodes_%289451928431%29.jpg",
    "sources": [
      "https://en.wikipedia.org/wiki/Palace_of_the_Grand_Master_of_the_Knights_of_Rhodes"
    ]
  },
  {
    "name": "Park Güell",
    "lat": 41.4145,
    "lon": 2.1527,
    "category": "monument",
    "country": "Spain",
    "local_name": "Parc Güell",
    "note": "Gaudí's mosaic-tiled park on Carmel Hill, Barcelona",
    "image": "https://upload.wikimedia.org/wikipedia/commons/thumb/3/33/Parc_guell_-_panoramio.jpg/1280px-Parc_guell_-_panoramio.jpg",
    "sources": [
      "https://en.wikipedia.org/wiki/Park_G%C3%BCell"
    ]
  },
  {
    "name": "Pergamon Museum",
    "lat": 52.5213,
    "lon": 13.3965,
    "category": "museum",
    "country": "Germany",
    "local_name": "Pergamonmuseum",
    "note": "Berlin museum of monumental reconstructed antiquities",
    "image": "https://upload.wikimedia.org/wikipedia/commons/thumb/4/46/Pergamonmuseum_Front.jpg/1280px-Pergamonmuseum_Front.jpg",
    "sources": [
      "https://en.wikipedia.org/wiki/Pergamon_Museum"
    ]
  },
  {
    "name": "Persepolis",
    "lat": 29.9352,
    "lon": 52.8906,
    "category": "ruins",
    "country": "Iran",
    "local_name": "Takht-e Jamshid",
    "note": "Ceremonial capital of the Achaemenid Empire",
    "image": "https://upload.wikimedia.org/wikipedia/commons/thumb/7/7d/Apadana_palace_persepolis.JPG/1280px-Apadana_palace_persepolis.JPG",
    "sources": [
      "https://en.wikipedia.org/wiki/Persepolis"
    ]
  },
  {
    "name": "Pont du Gard",
    "lat": 43.9472,
    "lon": 4.5354,
    "category": "monument",
    "country": "France",
    "note": "Three-tier Roman aqueduct bridge spanning the Gardon",
    "image": "https://upload.wikimedia.org/wikipedia/commons/thumb/4/42/Pont_du_Gard_BLS.jpg/1280px-Pont_du_Gard_BLS.jpg",
    "sources": [
      "https://en.wikipedia.org/wiki/Pont_du_Gard"
    ]
  },
  {
    "name": "Pushkin Museum",
    "lat": 55.74703,
    "lon": 37.60603,
    "category": "museum",
    "country": "Russia",
    "local_name": "Muzey imeni A. S. Pushkina",
    "note": "European art museum named for Pushkin, Moscow",
    "image": "https://upload.wikimedia.org/wikipedia/commons/thumb/f/f6/Gmii.jpg/1280px-Gmii.jpg",
    "sources": [
      "https://en.wikipedia.org/wiki/Pushkin_Museum"
    ]
  },
  {
    "name": "Qabus Tower",
    "lat": 37.25803,
    "lon": 55.169,
    "category": "monument",
    "country": "Iran",
    "local_name": "Gonbad-e Qabus",
    "note": "11th-c. brick funerary tower for Qabus, NE Iran",
    "image": "https://upload.wikimedia.org/wikipedia/commons/thumb/2/21/%D8%A8%D8%B1%D8%AC_%D9%87%D8%B2%D8%A7%D8%B1_%D8%B3%D8%A7%D9%84%D9%87.JPG/1280px-%D8%A8%D8%B1%D8%AC_%D9%87%D8%B2%D8%A7%D8%B1_%D8%B3%D8%A7%D9%84%D9%87.JPG",
    "sources": [
      "https://en.wikipedia.org/wiki/Gonbad-e_Qabus_(tower)"
    ]
  },
  {
    "name": "Qavam House",
    "lat": 29.60784,
    "lon": 52.55257,
    "category": "garden",
    "country": "Iran",
    "local_name": "Narenjestan-e Qavam",
    "note": "Qajar mansion and orange garden in Shiraz",
    "image": "https://upload.wikimedia.org/wikipedia/commons/thumb/7/72/Qavam_House_2018.jpg/1280px-Qavam_House_2018.jpg",
    "sources": [
      "https://en.wikipedia.org/wiki/Qavam_House"
    ]
  },
  {
    "name": "Rialto Bridge",
    "lat": 45.4381,
    "lon": 12.3358,
    "category": "bridge",
    "country": "Italy",
    "local_name": "Ponte di Rialto",
    "note": "16th-century stone arch over the Grand Canal",
    "image": "https://upload.wikimedia.org/wikipedia/commons/thumb/0/0b/Rialto_2025_4.jpg/1280px-Rialto_2025_4.jpg",
    "sources": [
      "https://en.wikipedia.org/wiki/Rialto_Bridge"
    ]
  },
  {
    "name": "Ribat of Zein-o-din",
    "lat": 31.41165,
    "lon": 54.70687,
    "category": "monument",
    "country": "Iran",
    "local_name": "Robat-e Zein-o-din",
    "note": "Safavid Silk Road caravanserai with circular towers",
    "image": "https://upload.wikimedia.org/wikipedia/commons/thumb/8/8d/Zeinodin_Caravanserai.jpg/1280px-Zeinodin_Caravanserai.jpg",
    "sources": [
      "https://en.wikipedia.org/wiki/Ribat_of_Zein-o-din"
    ]
  },
  {
    "name": "Ribat-i Sharaf",
    "lat": 36.2664,
    "lon": 60.6555,
    "category": "monument",
    "country": "Iran",
    "local_name": "رباط شرف",
    "note": "12th-c. Seljuk caravanserai, northeast Iran",
    "image": "https://upload.wikimedia.org/wikipedia/commons/thumb/f/fd/%D9%86%D9%85%D8%A7%DB%8C_%D8%B3%D9%87_%D8%B1%D8%AE_%D8%B1%D8%A8%D8%A7%D8%B7_%D8%B4%D8%B1%D9%81.jpg/1280px-%D9%86%D9%85%D8%A7%DB%8C_%D8%B3%D9%87_%D8%B1%D8%AE_%D8%B1%D8%A8%D8%A7%D8%B7_%D8%B4%D8%B1%D9%81.jpg",
    "sources": [
      "https://en.wikipedia.org/wiki/Ribat-i_Sharaf"
    ]
  },
  {
    "name": "Sa'd al-Saltaneh Caravanserai",
    "lat": 36.26889,
    "lon": 50.00056,
    "category": "monument",
    "country": "Iran",
    "local_name": "Karvansaray-e Sa'd al-Saltaneh",
    "note": "Qajar urban caravanserai, the largest in Iran, Qazvin",
    "image": "https://upload.wikimedia.org/wikipedia/commons/thumb/4/4e/%D8%B3%D8%B1%D8%A7%DB%8C_%D8%B3%D8%B9%D8%AF%D8%A7%D9%84%D8%B3%D9%84%D8%B7%D9%86%D9%87_%D9%82%D8%B2%D9%88%DB%8C%D9%86.jpg/1280px-%D8%B3%D8%B1%D8%A7%DB%8C_%D8%B3%D8%B9%D8%AF%D8%A7%D9%84%D8%B3%D9%84%D8%B7%D9%86%D9%87_%D9%82%D8%B2%D9%88%DB%8C%D9%86.jpg",
    "sources": [
      "https://en.wikipedia.org/wiki/Sa%27d_al-Saltaneh_Caravanserai"
    ]
  },
  {
    "name": "Sagrada Família",
    "lat": 41.4036,
    "lon": 2.1744,
    "category": "religious",
    "country": "Spain",
    "local_name": "Basílica de la Sagrada Família",
    "note": "Gaudí's Barcelona basilica, begun 1882",
    "image": "https://upload.wikimedia.org/wikipedia/commons/thumb/7/78/SF_maig_2026.jpg/1280px-SF_maig_2026.jpg",
    "sources": [
      "https://en.wikipedia.org/wiki/Sagrada_Fam%C3%ADlia"
    ]
  },
  {
    "name": "Saint Basil's Cathedral",
    "lat": 55.7525,
    "lon": 37.62306,
    "category": "religious",
    "country": "Russia",
    "local_name": "Sobor Vasiliya Blazhennogo",
    "note": "Onion-domed cathedral on Moscow's Red Square",
    "image": "https://upload.wikimedia.org/wikipedia/commons/thumb/1/18/Saint_Basil%27s_Cathedral_in_Moscow.jpg/1280px-Saint_Basil%27s_Cathedral_in_Moscow.jpg",
    "sources": [
      "https://en.wikipedia.org/wiki/Saint_Basil%27s_Cathedral"
    ]
  },
  {
    "name": "Sanssouci Palace",
    "lat": 52.40326,
    "lon": 13.03863,
    "category": "palace",
    "country": "Germany",
    "local_name": "Schloss Sanssouci",
    "note": "Rococo summer palace of Frederick the Great, Potsdam",
    "image": "https://upload.wikimedia.org/wikipedia/commons/thumb/8/8b/Schloss_Sanssouci_2014.jpg/1280px-Schloss_Sanssouci_2014.jpg",
    "sources": [
      "https://en.wikipedia.org/wiki/Sanssouci"
    ]
  },
  {
    "name": "Sforza Castle",
    "lat": 45.47,
    "lon": 9.17861,
    "category": "castle",
    "country": "Italy",
    "local_name": "Castello Sforzesco",
    "note": "15th-c. Milanese fortress, now civic museums",
    "image": "https://upload.wikimedia.org/wikipedia/commons/thumb/7/7e/20110725_Castello_Sforzesco_Milan_5557.jpg/1280px-20110725_Castello_Sforzesco_Milan_5557.jpg",
    "sources": [
      "https://en.wikipedia.org/wiki/Sforza_Castle"
    ]
  },
  {
    "name": "Shazdeh Garden",
    "lat": 30.02388,
    "lon": 57.28209,
    "category": "garden",
    "country": "Iran",
    "local_name": "Bagh-e Shazdeh Mahan",
    "note": "Qajar Persian garden with terraced waterworks, Mahan",
    "image": "https://upload.wikimedia.org/wikipedia/commons/thumb/3/3c/%D8%A8%D8%A7%D8%BA_%D8%B4%D8%A7%D9%87%D8%B2%D8%A7%D8%AF%D9%87-%D9%85%D8%A7%D9%87%D8%A7%D9%86-%DA%A9%D8%B1%D9%85%D8%A7%D9%86.jpg/1280px-%D8%A8%D8%A7%D8%BA_%D8%B4%D8%A7%D9%87%D8%B2%D8%A7%D8%AF%D9%87-%D9%85%D8%A7%D9%87%D8%A7%D9%86-%DA%A9%D8%B1%D9%85%D8%A7%D9%86.jpg",
    "sources": [
      "https://en.wikipedia.org/wiki/Shazdeh_Garden"
    ]
  },
  {
    "name": "Shrine of Sheikh Safi al-Din",
    "lat": 38.24861,
    "lon": 48.29139,
    "category": "religious",
    "country": "Iran",
    "local_name": "Aramgah-e Sheikh Safi al-Din",
    "note": "16th-c. Safavid Sufi shrine in Ardabil, northwest Iran",
    "image": "https://upload.wikimedia.org/wikipedia/commons/thumb/5/51/Sheikh_Safi_Al_Din_Ardabili_Tomb.jpg/1280px-Sheikh_Safi_Al_Din_Ardabili_Tomb.jpg",
    "sources": [
      "https://en.wikipedia.org/wiki/Sheikh_Safi_al-Din_Kh%C4%81neg%C4%81h_and_Shrine_Ensemble"
    ]
  },
  {
    "name": "Shushtar Historical Hydraulic System",
    "lat": 32.0441,
    "lon": 48.8585,
    "category": "archaeological-site",
    "country": "Iran",
    "local_name": "Sazeha-ye Abi-ye Shushtar",
    "note": "Sasanian canals, dams, and watermills, southwest Iran",
    "image": "https://upload.wikimedia.org/wikipedia/commons/thumb/2/26/Shushtar_Historical_Hydraulic_System_Panorama.jpg/1280px-Shushtar_Historical_Hydraulic_System_Panorama.jpg",
    "sources": [
      "https://en.wikipedia.org/wiki/Shushtar_Historical_Hydraulic_System"
    ]
  },
  {
    "name": "Skaros",
    "lat": 36.43246,
    "lon": 25.41818,
    "category": "ruins",
    "country": "Greece",
    "local_name": "Σκάρος",
    "note": "Ruined Venetian rock fortress in Imerovigli",
    "image": "https://upload.wikimedia.org/wikipedia/commons/thumb/f/f1/Skaros_Rock.jpg/1280px-Skaros_Rock.jpg",
    "sources": [
      "https://en.wikipedia.org/wiki/Skaros"
    ]
  },
  {
    "name": "State Historical Museum",
    "lat": 55.755,
    "lon": 37.6181,
    "category": "museum",
    "country": "Russia",
    "local_name": "Gosudarstvenny Istorichesky Muzey",
    "note": "Russian national history museum on Red Square, Moscow",
    "image": "https://upload.wikimedia.org/wikipedia/commons/thumb/9/92/Museo_Estatal_de_Historia%2C_Mosc%C3%BA%2C_Rusia%2C_2016-10-03%2C_DD_49.jpg/1280px-Museo_Estatal_de_Historia%2C_Mosc%C3%BA%2C_Rusia%2C_2016-10-03%2C_DD_49.jpg",
    "sources": [
      "https://en.wikipedia.org/wiki/State_Historical_Museum"
    ]
  },
  {
    "name": "Teide",
    "lat": 28.2721,
    "lon": -16.642,
    "category": "mountain",
    "country": "Spain",
    "local_name": "El Teide",
    "note": "Active volcano, Spain's highest peak at 3715 m",
    "image": "https://upload.wikimedia.org/wikipedia/commons/thumb/a/a5/Roque_Cinchado_und_Teide.jpg/1280px-Roque_Cinchado_und_Teide.jpg",
    "sources": [
      "https://en.wikipedia.org/wiki/Teide"
    ]
  },
  {
    "name": "Temple of Anahita",
    "lat": 34.50139,
    "lon": 47.96028,
    "category": "ruins",
    "country": "Iran",
    "local_name": "Parastashgah-e Anahita",
    "note": "Ancient temple ruins ascribed to Anahita, Kermanshah",
    "image": "https://upload.wikimedia.org/wikipedia/commons/thumb/4/41/Anahita_temple_Iran.jpg/1280px-Anahita_temple_Iran.jpg",
    "sources": [
      "https://en.wikipedia.org/wiki/Temple_of_Anahita,_Kangavar"
    ]
  },
  {
    "name": "Temple of the Inscriptions",
    "lat": 17.4836,
    "lon": -92.0468,
    "category": "archaeological-site",
    "country": "Mexico",
    "local_name": "Templo de las Inscripciones",
    "note": "Palenque pyramid with Pakal's tomb and Maya glyphs",
    "image": "https://upload.wikimedia.org/wikipedia/commons/thumb/b/bc/Tumba_de_pakal%2C_Chiapas.JPG/1280px-Tumba_de_pakal%2C_Chiapas.JPG",
    "sources": [
      "https://en.wikipedia.org/wiki/Temple_of_the_Inscriptions"
    ]
  },
  {
    "name": "The Burnt City",
    "lat": 30.59528,
    "lon": 61.32639,
    "category": "ruins",
    "country": "Iran",
    "local_name": "Shahr-e Sukhteh",
    "note": "Bronze Age city ruins on the Helmand, southeast Iran",
    "image": "https://upload.wikimedia.org/wikipedia/commons/thumb/8/86/C20R1002.jpg/1280px-C20R1002.jpg",
    "sources": [
      "https://en.wikipedia.org/wiki/Shahr-e_Sukhteh"
    ]
  },
  {
    "name": "Throne of Solomon",
    "lat": 36.60317,
    "lon": 47.23595,
    "category": "ruins",
    "country": "Iran",
    "local_name": "Takht-e Soleyman",
    "note": "Sasanian fire temple ruins, northwest Iran",
    "image": "https://upload.wikimedia.org/wikipedia/commons/thumb/c/c8/Takht-e-soleiman-1.jpg/1280px-Takht-e-soleiman-1.jpg",
    "sources": [
      "https://en.wikipedia.org/wiki/Takht-e_Soleym%C4%81n"
    ]
  },
  {
    "name": "Tomb of Cyrus the Great",
    "lat": 30.19389,
    "lon": 53.16722,
    "category": "monument",
    "country": "Iran",
    "local_name": "Aramgah-e Kurosh-e Bozorg",
    "note": "6th-c. BC mausoleum of Cyrus the Great at Pasargadae",
    "image": "https://upload.wikimedia.org/wikipedia/commons/thumb/5/51/Pasargad_Tomb_Cyrus3.jpg/1280px-Pasargad_Tomb_Cyrus3.jpg",
    "sources": [
      "https://en.wikipedia.org/wiki/Tomb_of_Cyrus"
    ]
  },
  {
    "name": "Tomb of Darius the Great",
    "lat": 29.98889,
    "lon": 52.87472,
    "category": "monument",
    "country": "Iran",
    "local_name": "Aramgah-e Daryush-e Bozorg",
    "note": "Darius the Great's cliff tomb at Naqsh-e Rostam",
    "image": "https://upload.wikimedia.org/wikipedia/commons/thumb/8/85/Tomb_of_Darius_I.jpg/1280px-Tomb_of_Darius_I.jpg",
    "sources": [
      "https://en.wikipedia.org/wiki/Tomb_of_Darius_the_Great"
    ]
  },
  {
    "name": "Verona Arena",
    "lat": 45.43889,
    "lon": 10.99444,
    "category": "monument",
    "country": "Italy",
    "local_name": "Arena di Verona",
    "note": "1st-century Roman amphitheatre, famed for its opera season",
    "image": "https://upload.wikimedia.org/wikipedia/commons/thumb/e/e2/Arena-XE3F2406a.jpg/1280px-Arena-XE3F2406a.jpg",
    "sources": [
      "https://en.wikipedia.org/wiki/Verona_Arena"
    ]
  }
]
