[
  {
    "name": "Acropolis of Lindos",
    "lat": 36.09154,
    "lon": 28.08854,
    "category": "ruins",
    "country": "Greece",
    "local_name": "Ακρόπολη της Λίνδου",
    "note": "Hilltop citadel with a 4th-century BC Temple of Athena TEST",
    "image": "https://upload.wikimedia.org/wikipedia/commons/thumb/e/e9/20210826-Lindos-DJI_0205.jpg/1280px-20210826-Lindos-DJI_0205.jpg",
    "sources": [
      "https://en.wikipedia.org/wiki/Lindos"
    ]
  },
  {
    "name": "Palace of the Grand Master",
    "lat": 36.44578,
    "lon": 28.2241,
    "category": "castle",
    "country": "Greece",
    "local_name": "Παλάτι του Μεγάλου Μαγίστρου",
    "note": "Medieval Knights Hospitaller fortress in Rhodes Old Town",
    "image": "https://upload.wikimedia.org/wikipedia/commons/thumb/f/f1/Palace_of_the_Grand_Master_of_the_Knights_of_Rhodes_%289451928431%29.jpg/1280px-Palace_of_the_Grand_Master_of_the_Knights_of_Rhodes_%289451928431%29.jpg",
    "sources": [
      "https://en.wikipedia.org/wiki/Palace_of_the_Grand_Master_of_the_Knights_of_Rhodes"
    ]
  },
  {
    "name": "Kaputas Beach",
    "lat": 36.22892,
    "lon": 29.44912,
    "category": "beach",
    "country": "Turkey",
    "local_name": "Kaputaş Plajı",
    "note": "Narrow canyon beach between cliffs",
    "image": "https://upload.wikimedia.org/wikipedia/commons/thumb/9/9b/Turkiye_Antalya_Kaputa%C5%9F_Plaj%C4%B1.jpg/1280px-Turkiye_Antalya_Kaputa%C5%9F_Plaj%C4%B1.jpg",
    "sources": [
      "https://en.wikipedia.org/wiki/Kaputas_Beach"
    ]
  },
  {
    "name": "Fira",
    "lat": 36.41907,
    "lon": 25.43224,
    "category": "city",
    "country": "Greece",
    "local_name": "Φηρά",
    "note": "Cliff-perched capital of Santorini on the caldera rim",
    "image": "https://upload.wikimedia.org/wikipedia/commons/thumb/e/e9/Santorini_Fira3_tango7174.jpg/1280px-Santorini_Fira3_tango7174.jpg",
    "sources": [
      "https://en.wikipedia.org/wiki/Fira"
    ]
  },
  {
    "name": "Ancient Thera",
    "lat": 36.36464,
    "lon": 25.47798,
    "category": "archaeological-site",
    "country": "Greece",
    "local_name": "Αρχαία Θήρα",
    "note": "Ancient city ruins on Mesa Vouno, founded 9th c. BC",
    "image": "https://upload.wikimedia.org/wikipedia/commons/thumb/1/1f/Santorini_ancient_thera_1.jpg/1280px-Santorini_ancient_thera_1.jpg",
    "sources": [
      "https://en.wikipedia.org/wiki/Ancient_Thera"
    ]
  },
  {
    "name": "Skaros",
    "lat": 36.43246,
    "lon": 25.41818,
    "category": "ruins",
    "country": "Greece",
    "local_name": "Σκάρος",
    "note": "Ruined Venetian rock fortress in Imerovigli",
    "image": "https://upload.wikimedia.org/wikipedia/commons/thumb/f/f1/Skaros_Rock.jpg/1280px-Skaros_Rock.jpg",
    "sources": [
      "https://en.wikipedia.org/wiki/Skaros"
    ]
  },
  {
    "name": "Teide",
    "lat": 28.27210,
    "lon": -16.64200,
    "category": "mountain",
    "country": "Spain",
    "local_name": "El Teide",
    "note": "Active volcano, Spain's highest peak at 3715 m",
    "image": "https://upload.wikimedia.org/wikipedia/commons/thumb/a/a5/Roque_Cinchado_und_Teide.jpg/1280px-Roque_Cinchado_und_Teide.jpg",
    "sources": [
      "https://en.wikipedia.org/wiki/Teide"
    ]
  },
  {
    "name": "Door of No Return",
    "lat": 14.66778,
    "lon": -17.39722,
    "category": "monument",
    "country": "Senegal",
    "local_name": "Porte du Voyage sans Retour",
    "note": "Doorway from the House of Slaves on Gorée Island",
    "image": "https://upload.wikimedia.org/wikipedia/commons/thumb/1/18/La_maison_des_esclaves.jpg/1280px-La_maison_des_esclaves.jpg",
    "sources": [
      "https://en.wikipedia.org/wiki/House_of_Slaves"
    ]
  },
  {
    "name": "Chefchaouen",
    "lat": 35.17139,
    "lon": -5.26972,
    "category": "city",
    "country": "Morocco",
    "local_name": "شفشاون",
    "note": "Blue-washed medina town in the Rif Mountains",
    "image": "https://upload.wikimedia.org/wikipedia/commons/thumb/2/25/Chefchaouen_%2852189357475%29.jpg/1280px-Chefchaouen_%2852189357475%29.jpg",
    "sources": [
      "https://en.wikipedia.org/wiki/Chefchaouen"
    ]
  },
  {
    "name": "Fes el-Bali",
    "lat": 34.06250,
    "lon": -4.97250,
    "category": "city",
    "country": "Morocco",
    "local_name": "فاس البالي",
    "note": "Walled medina of Fez, world's largest car-free area",
    "image": "https://upload.wikimedia.org/wikipedia/commons/thumb/5/5d/Fes_Bab_Bou_Jeloud_2011.jpg/1280px-Fes_Bab_Bou_Jeloud_2011.jpg",
    "sources": [
      "https://en.wikipedia.org/wiki/Fes_el_Bali"
    ]
  }
]
