[
  {
    "name": "Abu Simbel",
    "lat": 22.3369,
    "lon": 31.6256,
    "category": "monument",
    "country": "Egypt",
    "local_name": "أبو سمبل",
    "note": "Ramesses II rock-cut temples, relocated above Lake Nasser",
    "image": "https://upload.wikimedia.org/wikipedia/commons/thumb/b/b5/Ramsis%2C_Aswan_Governorate%2C_Egypt_-_panoramio.jpg/1280px-Ramsis%2C_Aswan_Governorate%2C_Egypt_-_panoramio.jpg",
    "sources": [
      "https://en.wikipedia.org/wiki/Abu_Simbel_temples"
    ]
  },
  {
    "name": "Acropolis of Lindos",
    "lat": 36.09154,
    "lon": 28.08854,
    "category": "ruins",
    "country": "Greece",
    "local_name": "Ακρόπολη της Λίνδου",
    "note": "Hilltop citadel with a 4th-century BC Temple of Athena",
    "image": "https://upload.wikimedia.org/wikipedia/commons/thumb/e/e9/20210826-Lindos-DJI_0205.jpg/1280px-20210826-Lindos-DJI_0205.jpg",
    "sources": [
      "https://en.wikipedia.org/wiki/Lindos"
    ]
  },
  {
    "name": "Akbarieh Garden",
    "lat": 32.85306,
    "lon": 59.22806,
    "category": "garden",
    "country": "Iran",
    "local_name": "باغ اکبریه",
    "note": "Qajar Persian garden in Birjand, eastern Iran",
    "image": "https://upload.wikimedia.org/wikipedia/commons/thumb/5/5b/%D9%85%D8%AC%D9%85%D9%88%D8%B9%D9%87_%D8%A7%DA%A9%D8%A8%D8%B1%DB%8C%D9%87%D8%8C_%D9%85%D8%B3%D8%AC%D8%AF_%D9%88_%D8%B9%D9%85%D8%A7%D8%B1%D8%AA_%D9%88_%D8%A8%D8%A7%D8%BA.jpg/1280px-%D9%85%D8%AC%D9%85%D9%88%D8%B9%D9%87_%D8%A7%DA%A9%D8%A8%D8%B1%DB%8C%D9%87%D8%8C_%D9%85%D8%B3%D8%AC%D8%AF_%D9%88_%D8%B9%D9%85%D8%A7%D8%B1%D8%AA_%D9%88_%D8%A8%D8%A7%D8%BA.jpg",
    "image_focus": "bottom",
    "sources": [
      "https://en.wikipedia.org/wiki/Akbarieh_Garden"
    ]
  },
  {
    "name": "Al Wahbah Crater",
    "lat": 22.9069,
    "lon": 41.1375,
    "category": "nature",
    "country": "Saudi Arabia",
    "local_name": "فَوْهَة ٱلْوَعْبَة",
    "note": "Volcanic crater with white salt floor",
    "image": "https://upload.wikimedia.org/wikipedia/commons/thumb/d/d2/Wahbah_Crater.jpg/1280px-Wahbah_Crater.jpg",
    "sources": [
      "https://en.wikipedia.org/wiki/Al_Wahbah"
    ]
  },
  {
    "name": "Al-Ula Old Town",
    "lat": 26.6083,
    "lon": 37.92271,
    "category": "ruins",
    "country": "Saudi Arabia",
    "note": "Labyrinth of abandoned mud-brick houses",
    "image": "https://upload.wikimedia.org/wikipedia/commons/thumb/0/07/Al-Ula_Old_Town_2021.jpg/1280px-Al-Ula_Old_Town_2021.jpg",
    "sources": [
      "https://en.wikipedia.org/wiki/Al-Ula"
    ]
  },
  {
    "name": "Ali Qapu",
    "lat": 32.65722,
    "lon": 51.67667,
    "category": "palace",
    "country": "Iran",
    "note": "Safavid imperial palace on Naqsh-e Jahan, Isfahan",
    "image": "https://upload.wikimedia.org/wikipedia/commons/thumb/c/c9/%C4%80l%C4%AB_Q%C4%81p%C5%AB_in_golden_time.jpg/1280px-%C4%80l%C4%AB_Q%C4%81p%C5%AB_in_golden_time.jpg",
    "sources": [
      "https://en.wikipedia.org/wiki/Ali_Qapu"
    ]
  },
  {
    "name": "Ali-Sadr Cave",
    "lat": 35.30161,
    "lon": 48.30388,
    "category": "cave",
    "country": "Iran",
    "local_name": "غار علی‌صدر",
    "note": "Water cave with navigable underground lakes, Hamedan",
    "image": "https://upload.wikimedia.org/wikipedia/commons/thumb/5/59/Ali_Sadr_Cave%2C_Hamadan_Province%2C_Iran%2Csiamak_sabet.jpg/1280px-Ali_Sadr_Cave%2C_Hamadan_Province%2C_Iran%2Csiamak_sabet.jpg",
    "sources": [
      "https://en.wikipedia.org/wiki/Ali-Sadr_Cave"
    ]
  },
  {
    "name": "Alte Nationalgalerie",
    "lat": 52.52083,
    "lon": 13.39806,
    "category": "museum",
    "country": "Germany",
    "note": "19th-century art museum on Berlin's Museum Island",
    "image": "https://upload.wikimedia.org/wikipedia/commons/thumb/2/23/AlteNationalgalerie_1a.jpg/1280px-AlteNationalgalerie_1a.jpg",
    "sources": [
      "https://en.wikipedia.org/wiki/Alte_Nationalgalerie"
    ]
  },
  {
    "name": "Altes Museum",
    "lat": 52.51944,
    "lon": 13.39833,
    "category": "museum",
    "country": "Germany",
    "note": "Schinkel's Neoclassical museum on Berlin's Museum Island",
    "image": "https://upload.wikimedia.org/wikipedia/commons/thumb/f/f5/Altes_Museum_%28Berlin%29_%286339770591%29.jpg/1280px-Altes_Museum_%28Berlin%29_%286339770591%29.jpg",
    "sources": [
      "https://en.wikipedia.org/wiki/Altes_Museum"
    ]
  },
  {
    "name": "Ancient Thera",
    "lat": 36.36464,
    "lon": 25.47798,
    "category": "archaeological-site",
    "country": "Greece",
    "local_name": "Αρχαία Θήρα",
    "note": "Ancient city ruins on Mesa Vouno, founded 9th c. BC",
    "image": "https://upload.wikimedia.org/wikipedia/commons/thumb/1/1f/Santorini_ancient_thera_1.jpg/1280px-Santorini_ancient_thera_1.jpg",
    "sources": [
      "https://en.wikipedia.org/wiki/Ancient_Thera"
    ]
  },
  {
    "name": "Angkor National Museum",
    "lat": 13.3666,
    "lon": 103.8599,
    "category": "museum",
    "country": "Cambodia",
    "local_name": "សារមន្ទីរជាតិអង្គរ",
    "note": "Khmer civilization artifacts from the Angkor period",
    "image": "https://upload.wikimedia.org/wikipedia/commons/thumb/e/ef/Angkor_National_Museum_%28II%29.jpg/1280px-Angkor_National_Museum_%28II%29.jpg",
    "sources": [
      "https://en.wikipedia.org/wiki/Angkor_National_Museum"
    ]
  },
  {
    "name": "Angkor Wat",
    "lat": 13.4125,
    "lon": 103.8667,
    "category": "religious",
    "country": "Cambodia",
    "local_name": "អង្គរវត្ត",
    "note": "World's largest religious monument, 12th-century Khmer",
    "image": "https://upload.wikimedia.org/wikipedia/commons/thumb/f/f5/Buddhist_monks_in_front_of_the_Angkor_Wat.jpg/1280px-Buddhist_monks_in_front_of_the_Angkor_Wat.jpg",
    "sources": [
      "https://en.wikipedia.org/wiki/Angkor_Wat"
    ]
  },
  {
    "name": "Anse Source d'Argent",
    "lat": -4.37154,
    "lon": 55.82721,
    "category": "beach",
    "country": "Seychelles",
    "note": "Granite-boulder beach with shallow water, La Digue island",
    "image": "https://upload.wikimedia.org/wikipedia/commons/thumb/9/97/La_Digue_asv2024-10_img22_Union_Estate.jpg/1280px-La_Digue_asv2024-10_img22_Union_Estate.jpg",
    "sources": [
      "https://en.wikipedia.org/wiki/Anse_Source_d%27Argent"
    ]
  },
  {
    "name": "Arch of Galerius",
    "lat": 40.63224,
    "lon": 22.95174,
    "category": "monument",
    "country": "Greece",
    "local_name": "Καμάρα",
    "note": "Roman triumphal arch for Galerius's win over Persia, 303 AD",
    "image": "https://upload.wikimedia.org/wikipedia/commons/thumb/5/56/Arch_of_Galerius-Kamara.jpg/1280px-Arch_of_Galerius-Kamara.jpg",
    "sources": [
      "https://en.wikipedia.org/wiki/Arch_of_Galerius_and_Rotunda"
    ]
  },
  {
    "name": "Atomic Bomb Dome",
    "lat": 34.3955,
    "lon": 132.4536,
    "category": "monument",
    "country": "Japan",
    "local_name": "原爆ドーム",
    "note": "Ruin left standing nearest the atomic bomb hypocenter",
    "image": "https://upload.wikimedia.org/wikipedia/commons/thumb/7/77/Genbaku_Dome04-r.JPG/1280px-Genbaku_Dome04-r.JPG",
    "sources": [
      "https://en.wikipedia.org/wiki/Hiroshima_Peace_Memorial"
    ]
  },
  {
    "name": "Auschwitz-Birkenau Memorial",
    "lat": 50.03583,
    "lon": 19.17833,
    "category": "museum",
    "country": "Poland",
    "local_name": "Państwowe Muzeum Auschwitz-Birkenau",
    "note": "Nazi death camp where 1.1 million were murdered",
    "image": "https://upload.wikimedia.org/wikipedia/commons/thumb/3/35/Auschwitz_I_%2822_May_2010%29_b.jpg/1280px-Auschwitz_I_%2822_May_2010%29_b.jpg",
    "sources": [
      "https://en.wikipedia.org/wiki/Auschwitz-Birkenau_State_Museum"
    ]
  },
  {
    "name": "Avenue of the Baobabs",
    "lat": -20.2509,
    "lon": 44.4189,
    "category": "nature",
    "country": "Madagascar",
    "local_name": "Allée des Baobabs",
    "note": "Ancient baobab trees lining a dirt road",
    "image": "https://upload.wikimedia.org/wikipedia/commons/thumb/e/e5/Avenue_of_Baobabs%2C_Madagascar_%2822558139260%29.jpg/1280px-Avenue_of_Baobabs%2C_Madagascar_%2822558139260%29.jpg",
    "sources": [
      "https://en.wikipedia.org/wiki/Avenue_of_the_Baobabs"
    ]
  },
  {
    "name": "Bagan",
    "lat": 21.1717,
    "lon": 94.8585,
    "category": "religious",
    "country": "Myanmar",
    "local_name": "ပុဂံ",
    "note": "Plain of 2,000+ Buddhist temples, 9th-13th century",
    "image": "https://upload.wikimedia.org/wikipedia/commons/thumb/8/89/Bagan%2C_Burma.jpg/1280px-Bagan%2C_Burma.jpg",
    "sources": [
      "https://en.wikipedia.org/wiki/Bagan"
    ]
  },
  {
    "name": "Bam Citadel",
    "lat": 29.11694,
    "lon": 58.36861,
    "category": "castle",
    "country": "Iran",
    "local_name": "ارگ بم",
    "note": "Massive adobe citadel of Bam, Silk Road landmark",
    "image": "https://upload.wikimedia.org/wikipedia/commons/thumb/0/03/010213-Kerman-IMG_0371-2.jpg/1280px-010213-Kerman-IMG_0371-2.jpg",
    "sources": [
      "https://en.wikipedia.org/wiki/Arg-e_Bam"
    ]
  },
  {
    "name": "Bandiagara Escarpment",
    "lat": 14.333,
    "lon": -3.417,
    "category": "nature",
    "country": "Mali",
    "note": "Dogon cliff dwellings carved into sandstone",
    "image": "https://upload.wikimedia.org/wikipedia/commons/thumb/0/0b/Mali_-_Pays_Dogon_%28falaise_de_Biandagara%29_%2813667559705%29.jpg/1280px-Mali_-_Pays_Dogon_%28falaise_de_Biandagara%29_%2813667559705%29.jpg",
    "sources": [
      "https://en.wikipedia.org/wiki/Bandiagara_Escarpment"
    ]
  },
  {
    "name": "Basilica of San Lorenzo, Milan",
    "lat": 45.45833,
    "lon": 9.18194,
    "category": "religious",
    "country": "Italy",
    "note": "Early Christian basilica with a Roman colonnade",
    "image": "https://upload.wikimedia.org/wikipedia/commons/thumb/a/ab/Milano_Colonne_di_San_Lorenzo_1.jpg/1280px-Milano_Colonne_di_San_Lorenzo_1.jpg",
    "sources": [
      "https://en.wikipedia.org/wiki/Basilica_of_San_Lorenzo,_Milan"
    ]
  },
  {
    "name": "Basilica of San Vitale",
    "lat": 44.4206,
    "lon": 12.1964,
    "category": "religious",
    "country": "Italy",
    "local_name": "Basilica di San Vitale",
    "note": "6th-century church with major Byzantine mosaics",
    "image": "https://upload.wikimedia.org/wikipedia/commons/thumb/5/51/Basilica_of_San_Vitale.jpg/1280px-Basilica_of_San_Vitale.jpg",
    "sources": [
      "https://en.wikipedia.org/wiki/Basilica_of_San_Vitale"
    ]
  },
  {
    "name": "Baths of Caracalla",
    "lat": 41.87944,
    "lon": 12.49306,
    "category": "ruins",
    "country": "Italy",
    "local_name": "Terme di Caracalla",
    "note": "Towering ruins of a vast Roman bath complex",
    "image": "https://upload.wikimedia.org/wikipedia/commons/thumb/5/53/Baths_of_Caracalla%2C_facing_Caldarium.jpg/1280px-Baths_of_Caracalla%2C_facing_Caldarium.jpg",
    "sources": [
      "https://en.wikipedia.org/wiki/Baths_of_Caracalla"
    ]
  },
  {
    "name": "Baths of Trajan",
    "lat": 41.89187,
    "lon": 12.49628,
    "category": "ruins",
    "country": "Italy",
    "local_name": "Terme di Traiano",
    "note": "Vast Roman bathing complex dedicated under Trajan, 109 AD",
    "image": "https://upload.wikimedia.org/wikipedia/commons/thumb/7/77/Trajansthermen.jpg/1280px-Trajansthermen.jpg",
    "sources": [
      "https://en.wikipedia.org/wiki/Baths_of_Trajan"
    ]
  },
  {
    "name": "Bayon",
    "lat": 13.44111,
    "lon": 103.85861,
    "category": "religious",
    "country": "Cambodia",
    "local_name": "ប្រាសាទបាយ័ន",
    "note": "Smiling stone-face towers at the heart of Angkor Thom",
    "image": "https://upload.wikimedia.org/wikipedia/commons/thumb/c/c3/Stone_faces_in_Bayon%2C_Angkor_%283%29.JPG/1280px-Stone_faces_in_Bayon%2C_Angkor_%283%29.JPG",
    "sources": [
      "https://en.wikipedia.org/wiki/Bayon"
    ]
  },
  {
    "name": "Bent Pyramid",
    "lat": 29.79028,
    "lon": 31.20917,
    "category": "monument",
    "country": "Egypt",
    "local_name": "هرم سنفرو المائل",
    "note": "One of the few pyramids keeping its smooth casing",
    "image": "https://upload.wikimedia.org/wikipedia/commons/thumb/2/26/Bent_Pyramid_%E6%9B%B2%E6%8A%98%E9%87%91%E5%AD%97%E5%A1%94_-_panoramio.jpg/1280px-Bent_Pyramid_%E6%9B%B2%E6%8A%98%E9%87%91%E5%AD%97%E5%A1%94_-_panoramio.jpg",
    "sources": [
      "https://en.wikipedia.org/wiki/Bent_Pyramid"
    ]
  },
  {
    "name": "Berat",
    "lat": 40.70222,
    "lon": 19.95833,
    "category": "city",
    "country": "Albania",
    "local_name": "Berati",
    "note": "Ottoman hillside town known for its tiered windows",
    "image": "https://upload.wikimedia.org/wikipedia/commons/thumb/f/f1/Berat_57.jpg/1280px-Berat_57.jpg",
    "sources": [
      "https://en.wikipedia.org/wiki/Berat"
    ]
  },
  {
    "name": "Berlin Cathedral",
    "lat": 52.51917,
    "lon": 13.40111,
    "category": "religious",
    "country": "Germany",
    "local_name": "Berliner Dom",
    "note": "Domed Protestant cathedral on Berlin's Museum Island",
    "image": "https://upload.wikimedia.org/wikipedia/commons/thumb/8/84/141227_Berliner_Dom.jpg/1280px-141227_Berliner_Dom.jpg",
    "sources": [
      "https://en.wikipedia.org/wiki/Berlin_Cathedral"
    ]
  },
  {
    "name": "Bingling Temple",
    "lat": 35.81056,
    "lon": 103.04833,
    "category": "religious",
    "country": "China",
    "local_name": "炳灵寺",
    "note": "Cliffside Buddhist grottoes with a 27 m Buddha",
    "image": "https://upload.wikimedia.org/wikipedia/commons/thumb/a/a0/Bingling_Temple_Grottoes_51.jpg/1280px-Bingling_Temple_Grottoes_51.jpg",
    "sources": [
      "https://en.wikipedia.org/wiki/Bingling_Temple"
    ]
  },
  {
    "name": "Blue Lagoon",
    "lat": 63.88,
    "lon": -22.44806,
    "category": "nature",
    "country": "Iceland",
    "local_name": "Bláa lónið",
    "note": "Geothermal spa in a lava field on the Reykjanes Peninsula",
    "image": "https://upload.wikimedia.org/wikipedia/commons/thumb/b/b5/Blue_Lagoon_with_%C3%9Eorbj%C3%B6rn%2C_Iceland%2C_20230430_1626_3692.jpg/1280px-Blue_Lagoon_with_%C3%9Eorbj%C3%B6rn%2C_Iceland%2C_20230430_1626_3692.jpg",
    "sources": [
      "https://en.wikipedia.org/wiki/Blue_Lagoon_(geothermal_spa)"
    ]
  },
  {
    "name": "Bode Museum",
    "lat": 52.52194,
    "lon": 13.39472,
    "category": "museum",
    "country": "Germany",
    "local_name": "Bode-Museum",
    "note": "Sculpture and Byzantine art on Berlin's Museum Island",
    "image": "https://upload.wikimedia.org/wikipedia/commons/thumb/c/c9/Berlin_Museumsinsel_Fernsehturm.jpg/1280px-Berlin_Museumsinsel_Fernsehturm.jpg",
    "sources": [
      "https://en.wikipedia.org/wiki/Bode_Museum"
    ]
  },
  {
    "name": "Borazjan Castle",
    "lat": 29.26725,
    "lon": 51.20844,
    "category": "castle",
    "country": "Iran",
    "local_name": "دژ برازجان",
    "note": "Qajar fortified stone caravanserai, Bushehr province",
    "image": "https://upload.wikimedia.org/wikipedia/commons/thumb/c/c0/%D9%86%D9%85%D8%A7%DB%8C_%D8%A8%DB%8C%D8%B1%D9%88%D9%86%DB%8C_%DA%A9%D8%A7%D8%B1%D9%88%D8%A7%D9%86%D8%B3%D8%B1%D8%A7%DB%8C_%D9%85%D8%B4%DB%8C%D8%B1%D8%A7%D9%84%D9%85%D9%84%DA%A9_%D8%A8%D8%B1%D8%A7%D8%B2%D8%AC%D8%A7%D9%86.jpg/1280px-%D9%86%D9%85%D8%A7%DB%8C_%D8%A8%DB%8C%D8%B1%D9%88%D9%86%DB%8C_%DA%A9%D8%A7%D8%B1%D9%88%D8%A7%D9%86%D8%B3%D8%B1%D8%A7%DB%8C_%D9%85%D8%B4%DB%8C%D8%B1%D8%A7%D9%84%D9%85%D9%84%DA%A9_%D8%A8%D8%B1%D8%A7%D8%B2%D8%AC%D8%A7%D9%86.jpg",
    "sources": [
      "https://en.wikipedia.org/wiki/Borazjan_Castle"
    ]
  },
  {
    "name": "British Museum",
    "lat": 51.5194,
    "lon": -0.1269,
    "category": "museum",
    "country": "United Kingdom",
    "note": "Vast collection of world history and culture, founded 1753",
    "image": "https://upload.wikimedia.org/wikipedia/commons/thumb/8/86/British_Museum_%28aerial%29.jpg/1280px-British_Museum_%28aerial%29.jpg",
    "sources": [
      "https://en.wikipedia.org/wiki/British_Museum"
    ]
  },
  {
    "name": "Bryggen",
    "lat": 60.39722,
    "lon": 5.32306,
    "category": "landmark",
    "country": "Norway",
    "note": "Colorful Hanseatic wharf of old wooden buildings",
    "image": "https://upload.wikimedia.org/wikipedia/commons/thumb/c/c7/Bryggen%2C_Bergen%2C_Noruega%2C_2019-09-08%2C_DD_115-117_PAN.jpg/1280px-Bryggen%2C_Bergen%2C_Noruega%2C_2019-09-08%2C_DD_115-117_PAN.jpg",
    "sources": [
      "https://en.wikipedia.org/wiki/Bryggen"
    ]
  },
  {
    "name": "Butrint",
    "lat": 39.74556,
    "lon": 20.02056,
    "category": "ruins",
    "country": "Albania",
    "local_name": "Butrinti",
    "note": "Ruined Greek and Roman city, now a national park",
    "image": "https://upload.wikimedia.org/wikipedia/commons/thumb/9/9b/Amphitheatre_of_Butrint_2009.jpg/1280px-Amphitheatre_of_Butrint_2009.jpg",
    "sources": [
      "https://en.wikipedia.org/wiki/Butrint"
    ]
  },
  {
    "name": "Cape Coast Castle",
    "lat": 5.1036,
    "lon": -1.2414,
    "category": "castle",
    "country": "Ghana",
    "note": "Slave trade fort, now a museum",
    "image": "https://upload.wikimedia.org/wikipedia/commons/thumb/a/a0/Cape_Coast_Castle%2C_Cape_Coast%2C_Ghana.JPG/1280px-Cape_Coast_Castle%2C_Cape_Coast%2C_Ghana.JPG",
    "sources": [
      "https://en.wikipedia.org/wiki/Cape_Coast_Castle"
    ]
  },
  {
    "name": "Cappadocia",
    "lat": 38.6437,
    "lon": 34.8353,
    "category": "nature",
    "country": "Turkey",
    "local_name": "Kapadokya",
    "note": "Fairy chimneys and ancient rock-cut cave dwellings",
    "image": "https://upload.wikimedia.org/wikipedia/commons/thumb/9/95/CAPPADOCIA_G%C3%B6reme_National_Park_and_the_Rock_Sites._World_Heritage_List._Turkey._Hot_Air_Ballooning_Cappadocia.jpg/1280px-CAPPADOCIA_G%C3%B6reme_National_Park_and_the_Rock_Sites._World_Heritage_List._Turkey._Hot_Air_Ballooning_Cappadocia.jpg",
    "sources": [
      "https://en.wikipedia.org/wiki/Cappadocia"
    ]
  },
  {
    "name": "Cathedral of Christ the Saviour",
    "lat": 55.74444,
    "lon": 37.60556,
    "category": "religious",
    "country": "Russia",
    "local_name": "Храм Христа Спасителя",
    "note": "Russian Orthodox cathedral on the Moskva, Moscow",
    "image": "https://upload.wikimedia.org/wikipedia/commons/thumb/d/d6/Moscow_July_2011-7a.jpg/1280px-Moscow_July_2011-7a.jpg",
    "sources": [
      "https://en.wikipedia.org/wiki/Cathedral_of_Christ_the_Saviour"
    ]
  },
  {
    "name": "Centre Pompidou",
    "lat": 48.86064,
    "lon": 2.35225,
    "category": "museum",
    "country": "France",
    "note": "Modern art museum with its structure turned inside out",
    "image": "https://upload.wikimedia.org/wikipedia/commons/thumb/6/6b/Centre_Pompidou_%40_Beaubourg_%40_Paris_%2815448205062%29.jpg/1280px-Centre_Pompidou_%40_Beaubourg_%40_Paris_%2815448205062%29.jpg",
    "sources": [
      "https://en.wikipedia.org/wiki/Centre_Pompidou"
    ]
  },
  {
    "name": "Charles Bridge",
    "lat": 50.08639,
    "lon": 14.41194,
    "category": "bridge",
    "country": "Czech Republic",
    "local_name": "Karlův most",
    "note": "14th-century stone bridge lined with baroque statues",
    "image": "https://upload.wikimedia.org/wikipedia/commons/thumb/2/22/Prague_07-2016_view_from_Lesser_Town_Tower_of_Charles_Bridge_img3.jpg/1280px-Prague_07-2016_view_from_Lesser_Town_Tower_of_Charles_Bridge_img3.jpg",
    "sources": [
      "https://en.wikipedia.org/wiki/Charles_Bridge"
    ]
  },
  {
    "name": "Chefchaouen",
    "lat": 35.17139,
    "lon": -5.26972,
    "category": "city",
    "country": "Morocco",
    "local_name": "شفشاون",
    "note": "Blue-washed medina town in the Rif Mountains",
    "image": "https://upload.wikimedia.org/wikipedia/commons/thumb/2/25/Chefchaouen_%2852189357475%29.jpg/1280px-Chefchaouen_%2852189357475%29.jpg",
    "sources": [
      "https://en.wikipedia.org/wiki/Chefchaouen"
    ]
  },
  {
    "name": "Chehel Sotoun",
    "lat": 32.6575,
    "lon": 51.67222,
    "category": "garden",
    "country": "Iran",
    "local_name": "باغ چهل‌ستون",
    "note": "17th-c. Safavid pavilion of 'forty columns', Isfahan",
    "image": "https://upload.wikimedia.org/wikipedia/commons/thumb/4/4e/Chehel_Sotoon.jpg/1280px-Chehel_Sotoon.jpg",
    "sources": [
      "https://en.wikipedia.org/wiki/Chehel_Sotoun"
    ]
  },
  {
    "name": "Chichen Itza",
    "lat": 20.6829,
    "lon": -88.5686,
    "category": "ruins",
    "country": "Mexico",
    "local_name": "Chichʼen Itzaʼ",
    "note": "Maya city with the Kukulcán step-pyramid",
    "image": "https://upload.wikimedia.org/wikipedia/commons/thumb/5/51/Chichen_Itza_3.jpg/1280px-Chichen_Itza_3.jpg",
    "sources": [
      "https://en.wikipedia.org/wiki/Chichen_Itza"
    ]
  },
  {
    "name": "Chillon Castle",
    "lat": 46.4142,
    "lon": 6.9273,
    "category": "castle",
    "country": "Switzerland",
    "local_name": "Château de Chillon",
    "note": "Lake Geneva island fortress, subject of Byron's poem",
    "image": "https://upload.wikimedia.org/wikipedia/commons/thumb/4/48/001_Chateau_de_Chillon_and_Dents_du_Midi_Photo_by_Giles_Laurent.jpg/1280px-001_Chateau_de_Chillon_and_Dents_du_Midi_Photo_by_Giles_Laurent.jpg",
    "sources": [
      "https://en.wikipedia.org/wiki/Ch%C3%A2teau_de_Chillon"
    ]
  },
  {
    "name": "Chogha Zanbil",
    "lat": 32.00833,
    "lon": 48.52083,
    "category": "ruins",
    "country": "Iran",
    "note": "13th-c. BC Elamite ziggurat, southwest Iran",
    "image": "https://upload.wikimedia.org/wikipedia/commons/thumb/d/d5/%D8%B2%DB%8C%DA%AF%D9%88%D8%B1%D8%A7%D8%AA_%DA%86%D8%BA%D8%A7_%D8%B2%D9%86%D8%A8%DB%8C%D9%84.jpg/1280px-%D8%B2%DB%8C%DA%AF%D9%88%D8%B1%D8%A7%D8%AA_%DA%86%D8%BA%D8%A7_%D8%B2%D9%86%D8%A8%DB%8C%D9%84.jpg",
    "sources": [
      "https://en.wikipedia.org/wiki/Chogha_Zanbil"
    ]
  },
  {
    "name": "Christ the Redeemer",
    "lat": -22.95194,
    "lon": -43.21056,
    "category": "monument",
    "country": "Brazil",
    "local_name": "Cristo Redentor",
    "note": "Art Deco Christ atop Corcovado, overlooking Rio",
    "image": "https://upload.wikimedia.org/wikipedia/commons/thumb/a/ae/Christ_on_Corcovado_mountain.JPG/1280px-Christ_on_Corcovado_mountain.JPG",
    "sources": [
      "https://en.wikipedia.org/wiki/Christ_the_Redeemer_(statue)"
    ]
  },
  {
    "name": "Church of Saint George, Sofia",
    "lat": 42.69694,
    "lon": 23.32278,
    "category": "religious",
    "country": "Bulgaria",
    "local_name": "Ротонда „Свети Георги\"",
    "note": "Oldest building in Sofia, a 4th-century Roman rotunda",
    "image": "https://upload.wikimedia.org/wikipedia/commons/thumb/6/60/StGeorgeRotundaSofia.JPG/1280px-StGeorgeRotundaSofia.JPG",
    "sources": [
      "https://en.wikipedia.org/wiki/Church_of_Saint_George,_Sofia"
    ]
  },
  {
    "name": "Copacabana Beach",
    "lat": -22.9711,
    "lon": -43.1822,
    "category": "beach",
    "country": "Brazil",
    "local_name": "Praia de Copacabana",
    "note": "4 km beach with its black-and-white wave promenade",
    "image": "https://upload.wikimedia.org/wikipedia/commons/thumb/f/fe/Copacabana_in_Rio_de_Janeiro_4_%2822126347021%29.jpg/1280px-Copacabana_in_Rio_de_Janeiro_4_%2822126347021%29.jpg",
    "sources": [
      "https://en.wikipedia.org/wiki/Copacabana,_Rio_de_Janeiro"
    ]
  },
  {
    "name": "Dayr-e Gachin",
    "lat": 35.0583,
    "lon": 51.4202,
    "category": "monument",
    "country": "Iran",
    "local_name": "کاروانسرای دیر گچین",
    "note": "Sasanian caravanserai rebuilt by Safavids, Qom",
    "image": "https://upload.wikimedia.org/wikipedia/commons/thumb/9/9a/%DA%A9%D8%A7%D8%B1%D9%88%D8%A7%D9%86%D8%B3%D8%B1%D8%A7%DB%8C_%D8%AF%DB%8C%D8%B1_%DA%AF%DA%86%DB%8C%D9%86_%D8%A7%D8%B3%D8%AA%D8%A7%D9%86_%D9%82%D9%85_-_%D9%88%DB%8C%DA%A9%DB%8C_%D8%AF%D9%88%D8%B3%D8%AA%D8%AF%D8%A7%D8%B1_%DB%8C%D8%A7%D8%AF%D9%85%D8%A7%D9%86_2018_21.jpg/1280px-%DA%A9%D8%A7%D8%B1%D9%88%D8%A7%D9%86%D8%B3%D8%B1%D8%A7%DB%8C_%D8%AF%DB%8C%D8%B1_%DA%AF%DA%86%DB%8C%D9%86_%D8%A7%D8%B3%D8%AA%D8%A7%D9%86_%D9%82%D9%85_-_%D9%88%DB%8C%DA%A9%DB%8C_%D8%AF%D9%88%D8%B3%D8%AA%D8%AF%D8%A7%D8%B1_%DB%8C%D8%A7%D8%AF%D9%85%D8%A7%D9%86_2018_21.jpg",
    "sources": [
      "https://en.wikipedia.org/wiki/Dayr-e_Gachin"
    ]
  },
  {
    "name": "Deadvlei",
    "lat": -24.76,
    "lon": 15.2929,
    "category": "nature",
    "country": "Namibia",
    "local_name": "Dooie Vlei",
    "note": "Clay pan with dead trees among red dunes",
    "image": "https://upload.wikimedia.org/wikipedia/commons/thumb/c/c0/Dead_Vlei_4.jpg/1280px-Dead_Vlei_4.jpg",
    "sources": [
      "https://en.wikipedia.org/wiki/Deadvlei"
    ]
  },
  {
    "name": "Devil's Heads",
    "lat": 50.42038,
    "lon": 14.4646,
    "category": "monument",
    "country": "Czech Republic",
    "local_name": "Čertovy hlavy",
    "note": "Two 9 m devil heads carved into a sandstone cliff",
    "image": "https://upload.wikimedia.org/wikipedia/commons/thumb/c/ca/Certovy_hlavy_Zelizy.jpg/1280px-Certovy_hlavy_Zelizy.jpg",
    "sources": [
      "https://en.wikipedia.org/wiki/%C4%8Certovy_hlavy"
    ]
  },
  {
    "name": "Diocletian's Palace",
    "lat": 43.50833,
    "lon": 16.44,
    "category": "palace",
    "country": "Croatia",
    "local_name": "Dioklecijanova palača",
    "note": "Roman emperor's palace, now Split's old town",
    "image": "https://upload.wikimedia.org/wikipedia/commons/thumb/d/da/Aerial_view_of_Diocletian%27s_Palace_in_Split%2C_Croatia_%2848608247353%29.jpg/1280px-Aerial_view_of_Diocletian%27s_Palace_in_Split%2C_Croatia_%2848608247353%29.jpg",
    "sources": [
      "https://en.wikipedia.org/wiki/Diocletian%27s_Palace"
    ]
  },
  {
    "name": "Diriyah",
    "lat": 24.73333,
    "lon": 46.57556,
    "category": "ruins",
    "country": "Saudi Arabia",
    "local_name": "الدرعية",
    "note": "Mud-brick birthplace of the first Saudi state",
    "image": "https://upload.wikimedia.org/wikipedia/commons/thumb/4/49/At-Turaif_District_of_Diriyah%2C_Saudi_Arabia.jpg/1280px-At-Turaif_District_of_Diriyah%2C_Saudi_Arabia.jpg",
    "sources": [
      "https://en.wikipedia.org/wiki/Diriyah"
    ]
  },
  {
    "name": "Djémila",
    "lat": 36.31667,
    "lon": 5.73333,
    "category": "ruins",
    "country": "Algeria",
    "local_name": "جميلة",
    "note": "Roman ruins of ancient Cuicul, adapted to mountain terrain",
    "image": "https://upload.wikimedia.org/wikipedia/commons/thumb/3/34/Roman_Ruins_of_Djemila_in_S%C3%A9tif%2C_Algeria.jpg/1280px-Roman_Ruins_of_Djemila_in_S%C3%A9tif%2C_Algeria.jpg",
    "sources": [
      "https://en.wikipedia.org/wiki/Djémila"
    ]
  },
  {
    "name": "Dome of Soltaniyeh",
    "lat": 36.43397,
    "lon": 48.79603,
    "category": "monument",
    "country": "Iran",
    "local_name": "گنبد سلطانیه",
    "note": "14th-c. Ilkhanid mausoleum, northwest Iran",
    "image": "https://upload.wikimedia.org/wikipedia/commons/thumb/9/93/Gonbad_Soltaniye.jpg/1280px-Gonbad_Soltaniye.jpg",
    "sources": [
      "https://en.wikipedia.org/wiki/Dome_of_Soltaniyeh"
    ]
  },
  {
    "name": "Door of No Return",
    "lat": 14.66778,
    "lon": -17.39722,
    "category": "monument",
    "country": "Senegal",
    "local_name": "Porte du Voyage sans Retour",
    "note": "Doorway from the House of Slaves on Gorée Island",
    "image": "https://upload.wikimedia.org/wikipedia/commons/thumb/1/18/La_maison_des_esclaves.jpg/1280px-La_maison_des_esclaves.jpg",
    "sources": [
      "https://en.wikipedia.org/wiki/House_of_Slaves"
    ]
  },
  {
    "name": "Dowlatabad Garden",
    "lat": 31.90278,
    "lon": 54.35222,
    "category": "garden",
    "country": "Iran",
    "local_name": "باغ دولت آباد",
    "note": "18th-c. Persian garden with giant windcatcher, Yazd",
    "image": "https://upload.wikimedia.org/wikipedia/commons/thumb/0/06/Dolat_Abad_Garden_-_Pavilion_01.jpg/1280px-Dolat_Abad_Garden_-_Pavilion_01.jpg",
    "sources": [
      "https://en.wikipedia.org/wiki/Dowlatabad_Garden"
    ]
  },
  {
    "name": "Edge of the World",
    "lat": 24.8422,
    "lon": 46.1708,
    "category": "nature",
    "country": "Saudi Arabia",
    "note": "Tuwaiq escarpment cliff overlooking endless desert",
    "image": "https://upload.wikimedia.org/wikipedia/commons/thumb/b/b1/Edge_of_the_world_%286524157755%29.jpg/1280px-Edge_of_the_world_%286524157755%29.jpg",
    "sources": [
      "https://en.wikipedia.org/wiki/Tuwaiq"
    ]
  },
  {
    "name": "Egyptian Museum",
    "lat": 45.0686,
    "lon": 7.6842,
    "category": "museum",
    "country": "Italy",
    "local_name": "Museo Egizio",
    "note": "Largest Egyptian collection outside Cairo",
    "image": "https://upload.wikimedia.org/wikipedia/commons/thumb/7/76/Museo_Egizio_e_Galleria_sabauda%2C_Torino.jpg/1280px-Museo_Egizio_e_Galleria_sabauda%2C_Torino.jpg",
    "sources": [
      "https://en.wikipedia.org/wiki/Museo_Egizio"
    ]
  },
  {
    "name": "Eram Garden",
    "lat": 29.63583,
    "lon": 52.52528,
    "category": "garden",
    "country": "Iran",
    "local_name": "باغ ارم",
    "note": "Qajar Persian garden with cypress avenue, Shiraz",
    "image": "https://upload.wikimedia.org/wikipedia/commons/thumb/1/12/Bagh_Eram_Shiraz.jpg/1280px-Bagh_Eram_Shiraz.jpg",
    "sources": [
      "https://en.wikipedia.org/wiki/Eram_Garden"
    ]
  },
  {
    "name": "Erbil Citadel",
    "lat": 36.1912,
    "lon": 44.0094,
    "category": "monument",
    "country": "Iraq",
    "local_name": "قەڵای هەولێر",
    "note": "Possibly the oldest continuously inhabited place on Earth",
    "image": "https://upload.wikimedia.org/wikipedia/commons/thumb/3/34/Hawler_Castle.jpg/1280px-Hawler_Castle.jpg",
    "sources": [
      "https://en.wikipedia.org/wiki/Citadel_of_Erbil"
    ]
  },
  {
    "name": "Eyjafjallajökull",
    "lat": 63.62,
    "lon": -19.61333,
    "category": "nature",
    "country": "Iceland",
    "note": "Ice cap covering a 1,651 m active volcano",
    "image": "https://upload.wikimedia.org/wikipedia/commons/thumb/f/f9/Eyjafjallaj%C3%B6kull_major_eruption_20100510.jpg/1280px-Eyjafjallaj%C3%B6kull_major_eruption_20100510.jpg",
    "sources": [
      "https://en.wikipedia.org/wiki/Eyjafjallaj%C3%B6kull"
    ]
  },
  {
    "name": "Fes el-Bali",
    "lat": 34.0625,
    "lon": -4.9725,
    "category": "city",
    "country": "Morocco",
    "local_name": "فاس البالي",
    "note": "Walled medina of Fez, world's largest car-free area",
    "image": "https://upload.wikimedia.org/wikipedia/commons/thumb/5/5d/Fes_Bab_Bou_Jeloud_2011.jpg/1280px-Fes_Bab_Bou_Jeloud_2011.jpg",
    "sources": [
      "https://en.wikipedia.org/wiki/Fes_el_Bali"
    ]
  },
  {
    "name": "Fin Garden",
    "lat": 33.94638,
    "lon": 51.37259,
    "category": "garden",
    "country": "Iran",
    "local_name": "باغ فین",
    "note": "Safavid Persian garden with spring-fed pools, Kashan",
    "image": "https://upload.wikimedia.org/wikipedia/commons/thumb/b/b0/Jard%C3%ADn_de_Fin%2C_Kashan%2C_Ir%C3%A1n%2C_2016-09-19%2C_DD_22.jpg/1280px-Jard%C3%ADn_de_Fin%2C_Kashan%2C_Ir%C3%A1n%2C_2016-09-19%2C_DD_22.jpg",
    "sources": [
      "https://en.wikipedia.org/wiki/Fin_Garden"
    ]
  },
  {
    "name": "Fingal's Cave",
    "lat": 56.43389,
    "lon": -6.33611,
    "category": "cave",
    "country": "Scotland",
    "note": "Basalt-column sea cave that inspired Mendelssohn",
    "image": "https://upload.wikimedia.org/wikipedia/commons/thumb/5/53/Fingal%27s_Cave%2C_Staffa_Island_02.jpg/1280px-Fingal%27s_Cave%2C_Staffa_Island_02.jpg",
    "sources": [
      "https://en.wikipedia.org/wiki/Fingal%27s_Cave"
    ]
  },
  {
    "name": "Fira",
    "lat": 36.41907,
    "lon": 25.43224,
    "category": "city",
    "country": "Greece",
    "local_name": "Φηρά",
    "note": "Cliff-perched capital of Santorini on the caldera rim",
    "image": "https://upload.wikimedia.org/wikipedia/commons/thumb/e/e9/Santorini_Fira3_tango7174.jpg/1280px-Santorini_Fira3_tango7174.jpg",
    "sources": [
      "https://en.wikipedia.org/wiki/Fira"
    ]
  },
  {
    "name": "Fushimi Inari-taisha",
    "lat": 34.9671,
    "lon": 135.7727,
    "category": "religious",
    "country": "Japan",
    "local_name": "伏見稲荷大社",
    "note": "Thousands of vermillion torii gates up a mountain trail",
    "image": "https://upload.wikimedia.org/wikipedia/commons/thumb/0/0e/Torii_path_with_lantern_at_Fushimi_Inari_Taisha_Shrine%2C_Kyoto%2C_Japan.jpg/1280px-Torii_path_with_lantern_at_Fushimi_Inari_Taisha_Shrine%2C_Kyoto%2C_Japan.jpg",
    "sources": [
      "https://en.wikipedia.org/wiki/Fushimi_Inari-taisha"
    ]
  },
  {
    "name": "Garni Temple",
    "lat": 40.11242,
    "lon": 44.73028,
    "category": "monument",
    "country": "Armenia",
    "local_name": "Գառնիի տաճար",
    "note": "Only standing Greco-Roman colonnaded temple in the region",
    "image": "https://upload.wikimedia.org/wikipedia/commons/thumb/2/2c/Garni_temple_2021_drone.jpg/1280px-Garni_temple_2021_drone.jpg",
    "sources": [
      "https://en.wikipedia.org/wiki/Temple_of_Garni"
    ]
  },
  {
    "name": "Geghard Monastery",
    "lat": 40.14043,
    "lon": 44.81851,
    "category": "religious",
    "country": "Armenia",
    "local_name": "Գեղարդ",
    "note": "Medieval monastery partly carved into the cliffside",
    "image": "https://upload.wikimedia.org/wikipedia/commons/thumb/7/7b/Monasterio_de_Geghard%2C_Armenia%2C_2016-10-02%2C_DD_63.jpg/1280px-Monasterio_de_Geghard%2C_Armenia%2C_2016-10-02%2C_DD_63.jpg",
    "sources": [
      "https://en.wikipedia.org/wiki/Geghard"
    ]
  },
  {
    "name": "Genghis Khan Equestrian Statue",
    "lat": 47.80806,
    "lon": 107.52975,
    "category": "monument",
    "country": "Mongolia",
    "local_name": "Чингис хааны морьт хөшөө",
    "note": "40 m stainless-steel Genghis Khan on horseback",
    "image": "https://upload.wikimedia.org/wikipedia/commons/thumb/9/93/Genghis_Khan_Equestrian_Statue%2C_photo_by_Vaiz_Ha.jpg/1280px-Genghis_Khan_Equestrian_Statue%2C_photo_by_Vaiz_Ha.jpg",
    "sources": [
      "https://en.wikipedia.org/wiki/Equestrian_statue_of_Genghis_Khan"
    ]
  },
  {
    "name": "German Historical Museum",
    "lat": 52.51806,
    "lon": 13.39694,
    "category": "museum",
    "country": "Germany",
    "local_name": "Deutsches Historisches Museum",
    "note": "German history museum in Berlin's Baroque Zeughaus",
    "image": "https://upload.wikimedia.org/wikipedia/commons/thumb/f/f4/Zeughaus_Berlin_2012.jpg/1280px-Zeughaus_Berlin_2012.jpg",
    "sources": [
      "https://en.wikipedia.org/wiki/Deutsches_Historisches_Museum"
    ]
  },
  {
    "name": "Ghibli Museum",
    "lat": 35.6962,
    "lon": 139.5704,
    "category": "museum",
    "country": "Japan",
    "local_name": "三鷹の森ジブリ美術館",
    "note": "Miyazaki's animated world brought to life",
    "image": "https://upload.wikimedia.org/wikipedia/commons/thumb/4/45/Ghibli_Museum_2024.JPG/1280px-Ghibli_Museum_2024.JPG",
    "sources": [
      "https://en.wikipedia.org/wiki/Ghibli_Museum"
    ]
  },
  {
    "name": "Ginzan Onsen",
    "lat": 38.56972,
    "lon": 140.53111,
    "category": "village",
    "country": "Japan",
    "local_name": "銀山温泉",
    "note": "Gas-lit Taisho-era hot spring town in Yamagata",
    "image": "https://upload.wikimedia.org/wikipedia/commons/thumb/e/e3/Evening_twilight_in_Ginzan_Onsen_town_January_2022_B.jpg/1280px-Evening_twilight_in_Ginzan_Onsen_town_January_2022_B.jpg",
    "sources": [
      "https://en.wikipedia.org/wiki/Ginzan_Onsen"
    ]
  },
  {
    "name": "Golestan Palace",
    "lat": 35.67972,
    "lon": 51.42028,
    "category": "palace",
    "country": "Iran",
    "local_name": "کاخ گلستان",
    "note": "Qajar royal palace complex in central Tehran",
    "image": "https://upload.wikimedia.org/wikipedia/commons/thumb/a/a9/Palais_du_Golestan%2C_T%C3%A9h%C3%A9ran_%285%29.jpg/1280px-Palais_du_Golestan%2C_T%C3%A9h%C3%A9ran_%285%29.jpg",
    "sources": [
      "https://en.wikipedia.org/wiki/Golestan_Palace"
    ]
  },
  {
    "name": "Goryokaku Fort",
    "lat": 41.7964,
    "lon": 140.757,
    "category": "monument",
    "country": "Japan",
    "local_name": "五稜郭",
    "note": "Star-shaped Western-style fort in Hakodate, Hokkaido",
    "image": "https://upload.wikimedia.org/wikipedia/commons/thumb/d/d5/Hakodate_Goryokaku_Panorama_1.JPG/1280px-Hakodate_Goryokaku_Panorama_1.JPG",
    "sources": [
      "https://en.wikipedia.org/wiki/Gory%C5%8Dkaku"
    ]
  },
  {
    "name": "Great Pyramid of Cholula",
    "lat": 19.0575,
    "lon": -98.30194,
    "category": "monument",
    "country": "Mexico",
    "local_name": "Tlachihualtepetl",
    "note": "Largest pyramid by volume in the world",
    "image": "https://upload.wikimedia.org/wikipedia/commons/thumb/6/60/Gran_Pir%C3%A1mide_de_Cholula%2C_Puebla%2C_M%C3%A9xico%2C_2013-10-12%2C_DD_10.JPG/1280px-Gran_Pir%C3%A1mide_de_Cholula%2C_Puebla%2C_M%C3%A9xico%2C_2013-10-12%2C_DD_10.JPG",
    "sources": [
      "https://en.wikipedia.org/wiki/Great_Pyramid_of_Cholula"
    ]
  },
  {
    "name": "Great Pyramid of Giza",
    "lat": 29.97917,
    "lon": 31.13417,
    "category": "monument",
    "country": "Egypt",
    "note": "Oldest of the Seven Wonders and only one still standing",
    "image": "https://upload.wikimedia.org/wikipedia/commons/thumb/e/e7/Great_Pyramid_of_Giza_-_Pyramid_of_Khufu.jpg/1280px-Great_Pyramid_of_Giza_-_Pyramid_of_Khufu.jpg",
    "sources": [
      "https://en.wikipedia.org/wiki/Great_Pyramid_of_Giza"
    ]
  },
  {
    "name": "Great Sphinx of Giza",
    "lat": 29.9753,
    "lon": 31.1376,
    "category": "monument",
    "country": "Egypt",
    "local_name": "أبو الهول",
    "note": "Limestone sphinx on the Giza plateau, c. 2500 BCE",
    "image": "https://upload.wikimedia.org/wikipedia/commons/thumb/4/42/Sphinx_with_the_third_pyramid.jpg/1280px-Sphinx_with_the_third_pyramid.jpg",
    "sources": [
      "https://en.wikipedia.org/wiki/Great_Sphinx_of_Giza"
    ]
  },
  {
    "name": "Hadrian's Villa",
    "lat": 41.946,
    "lon": 12.77252,
    "category": "ruins",
    "country": "Italy",
    "local_name": "Villa Adriana",
    "note": "Vast Roman villa recreating sites from the empire",
    "image": "https://upload.wikimedia.org/wikipedia/commons/thumb/8/8f/Villa_Hadriana_%28Villa_Adriana_Tivoli%29_1000_20.jpg/1280px-Villa_Hadriana_%28Villa_Adriana_Tivoli%29_1000_20.jpg",
    "sources": [
      "https://en.wikipedia.org/wiki/Hadrian%27s_Villa"
    ]
  },
  {
    "name": "Hashima Island",
    "lat": 32.6275,
    "lon": 129.7383,
    "category": "ruins",
    "country": "Japan",
    "local_name": "端島",
    "note": "Abandoned concrete island, former coal mining city",
    "image": "https://upload.wikimedia.org/wikipedia/commons/thumb/6/6b/Battle-Ship_Island_Nagasaki_Japan.jpg/1280px-Battle-Ship_Island_Nagasaki_Japan.jpg",
    "sources": [
      "https://en.wikipedia.org/wiki/Hashima_Island"
    ]
  },
  {
    "name": "Hegra",
    "lat": 26.79167,
    "lon": 37.95278,
    "category": "ruins",
    "country": "Saudi Arabia",
    "local_name": "مدائن صالح",
    "note": "Over 100 Nabataean rock-cut tombs in the desert",
    "image": "https://upload.wikimedia.org/wikipedia/commons/thumb/d/df/Hegra%2C_Al-Ula%2C_Saudi_Arabia.png/1280px-Hegra%2C_Al-Ula%2C_Saudi_Arabia.png",
    "sources": [
      "https://en.wikipedia.org/wiki/Hegra"
    ]
  },
  {
    "name": "Heidelberg Castle",
    "lat": 49.4104,
    "lon": 8.7153,
    "category": "castle",
    "country": "Germany",
    "local_name": "Heidelberger Schloss",
    "note": "Romantic ruin overlooking the Neckar valley",
    "image": "https://upload.wikimedia.org/wikipedia/commons/thumb/1/1d/Heidelberg-2726936.jpg/1280px-Heidelberg-2726936.jpg",
    "sources": [
      "https://en.wikipedia.org/wiki/Heidelberg_Castle"
    ]
  },
  {
    "name": "Hermitage Museum",
    "lat": 59.9406,
    "lon": 30.3136,
    "category": "museum",
    "country": "Russia",
    "local_name": "Государственный Эрмитаж",
    "note": "Imperial art collection in Saint Petersburg's Winter Palace",
    "image": "https://upload.wikimedia.org/wikipedia/commons/thumb/7/74/RUS-2016-Aerial-SPB-Winter_Palace_%28crop%29.jpg/1280px-RUS-2016-Aerial-SPB-Winter_Palace_%28crop%29.jpg",
    "sources": [
      "https://en.wikipedia.org/wiki/Hermitage_Museum"
    ]
  },
  {
    "name": "Himeji Castle",
    "lat": 34.8394,
    "lon": 134.6939,
    "category": "castle",
    "country": "Japan",
    "local_name": "姫路城",
    "note": "Japan's best-preserved castle, white heron design",
    "image": "https://upload.wikimedia.org/wikipedia/commons/thumb/c/c1/Himeji_castle_in_may_2015.jpg/1280px-Himeji_castle_in_may_2015.jpg",
    "sources": [
      "https://en.wikipedia.org/wiki/Himeji_Castle"
    ]
  },
  {
    "name": "Hiroshima Peace Memorial Museum",
    "lat": 34.39167,
    "lon": 132.45194,
    "category": "museum",
    "country": "Japan",
    "local_name": "広島平和記念資料館",
    "note": "History of the atomic bombing of Hiroshima",
    "image": "https://upload.wikimedia.org/wikipedia/commons/thumb/c/cd/Hiroshima_Peace_Memorial_Museum_2009.jpg/1280px-Hiroshima_Peace_Memorial_Museum_2009.jpg",
    "sources": [
      "https://en.wikipedia.org/wiki/Hiroshima_Peace_Memorial_Museum"
    ]
  },
  {
    "name": "Horizontal Falls",
    "lat": -16.38325,
    "lon": 123.95797,
    "category": "nature",
    "country": "Australia",
    "local_name": "Garaanngaddim",
    "note": "Tidal surge through narrow gorges of the Kimberley coast",
    "image": "https://upload.wikimedia.org/wikipedia/commons/thumb/8/8c/Horizontal_Falls.jpg/1280px-Horizontal_Falls.jpg",
    "sources": [
      "https://en.wikipedia.org/wiki/Horizontal_Falls"
    ]
  },
  {
    "name": "Humboldt Forum",
    "lat": 52.5175,
    "lon": 13.40278,
    "category": "museum",
    "country": "Germany",
    "note": "Non-European art in Berlin's reconstructed palace",
    "image": "https://upload.wikimedia.org/wikipedia/commons/thumb/0/0c/Berlin-BerlinerSchloss-6-Asio.JPG/1280px-Berlin-BerlinerSchloss-6-Asio.JPG",
    "sources": [
      "https://en.wikipedia.org/wiki/Humboldt_Forum"
    ]
  },
  {
    "name": "Hungarian Parliament Building",
    "lat": 47.5071,
    "lon": 19.0458,
    "category": "landmark",
    "country": "Hungary",
    "local_name": "Országház",
    "note": "Largest building in Hungary",
    "image": "https://upload.wikimedia.org/wikipedia/commons/thumb/9/99/Hungarian_Parliament_Building_from_across_the_Danube%2C_2025-01-11.jpg/1280px-Hungarian_Parliament_Building_from_across_the_Danube%2C_2025-01-11.jpg",
    "sources": [
      "https://en.wikipedia.org/wiki/Hungarian_Parliament_Building"
    ]
  },
  {
    "name": "Imam Reza Shrine",
    "lat": 36.288,
    "lon": 59.6157,
    "category": "religious",
    "country": "Iran",
    "local_name": "حرم امام رضا",
    "note": "Tomb of 8th Shia Imam, vast pilgrimage complex, Mashhad",
    "image": "https://upload.wikimedia.org/wikipedia/commons/thumb/3/38/%D8%B5%D8%AD%D9%86_%D8%A7%DB%8C%D9%88%D8%A7%D9%86_%D8%B7%D9%84%D8%A7_%D9%88_%D8%B3%D9%82%D8%A7%D8%AE%D8%A7%D9%86%D9%87.jpg/1280px-%D8%B5%D8%AD%D9%86_%D8%A7%DB%8C%D9%88%D8%A7%D9%86_%D8%B7%D9%84%D8%A7_%D9%88_%D8%B3%D9%82%D8%A7%D8%AE%D8%A7%D9%86%D9%87.jpg",
    "sources": [
      "https://en.wikipedia.org/wiki/Imam_Reza_shrine"
    ]
  },
  {
    "name": "Itsukushima Shrine",
    "lat": 34.2961,
    "lon": 132.3198,
    "category": "religious",
    "country": "Japan",
    "local_name": "厳島神社",
    "note": "Floating torii gate in the sea off Miyajima island",
    "image": "https://upload.wikimedia.org/wikipedia/commons/thumb/e/ef/Itsukushima_Shrine_Torii_Gate_%2813890465459%29.jpg/1280px-Itsukushima_Shrine_Torii_Gate_%2813890465459%29.jpg",
    "sources": [
      "https://en.wikipedia.org/wiki/Itsukushima_Shrine"
    ]
  },
  {
    "name": "Jamalabad Caravanserai",
    "lat": 37.27189,
    "lon": 47.84306,
    "category": "monument",
    "country": "Iran",
    "local_name": "کاروانسرای جمال آباد",
    "note": "Ilkhanid caravanserai near Mianeh, northwest Iran",
    "image": "https://upload.wikimedia.org/wikipedia/commons/thumb/b/ba/Jamal_abad_caravansary.jpg/1280px-Jamal_abad_caravansary.jpg",
    "sources": [
      "https://en.wikipedia.org/wiki/Jamalabad_Caravanserai"
    ]
  },
  {
    "name": "Jameh Mosque of Isfahan",
    "lat": 32.66972,
    "lon": 51.68528,
    "category": "religious",
    "country": "Iran",
    "local_name": "مسجد جامع اصفهان",
    "note": "Friday mosque of Isfahan, founder of four-iwan plan",
    "image": "https://upload.wikimedia.org/wikipedia/commons/thumb/5/54/20180301124354_IMG_4179And6more_Interior_3.jpg/1280px-20180301124354_IMG_4179And6more_Interior_3.jpg",
    "sources": [
      "https://en.wikipedia.org/wiki/Jameh_Mosque_of_Isfahan"
    ]
  },
  {
    "name": "Jigokudani Monkey Park",
    "lat": 36.7331,
    "lon": 138.4625,
    "category": "nature",
    "country": "Japan",
    "local_name": "地獄谷野猿公苑",
    "note": "Wild snow monkeys bathing in natural hot springs in Nagano",
    "image": "https://upload.wikimedia.org/wikipedia/commons/thumb/7/73/Two_snow_monkeys_at_Jigokudani_Monkey_Park.jpg/1280px-Two_snow_monkeys_at_Jigokudani_Monkey_Park.jpg",
    "sources": [
      "https://en.wikipedia.org/wiki/Jigokudani_Monkey_Park"
    ]
  },
  {
    "name": "Jvari Monastery",
    "lat": 41.8381,
    "lon": 44.7339,
    "category": "religious",
    "country": "Georgia",
    "local_name": "ჯვრის მონასტერი",
    "note": "6th-century hilltop church above the confluence at Mtskheta",
    "image": "https://upload.wikimedia.org/wikipedia/commons/thumb/4/47/Georgia_Jvari_monastery_IMG_9345_2070.jpg/1280px-Georgia_Jvari_monastery_IMG_9345_2070.jpg",
    "sources": [
      "https://en.wikipedia.org/wiki/Jvari_monastery"
    ]
  },
  {
    "name": "Kailasa Temple",
    "lat": 20.02389,
    "lon": 75.17917,
    "category": "religious",
    "country": "India",
    "local_name": "कैलाश मन्दिर",
    "note": "Hindu temple carved top-down from a single rock",
    "image": "https://upload.wikimedia.org/wikipedia/commons/thumb/2/2d/Kailasa_Temple_at_Ellora_%28Cave_16%29.jpg/1280px-Kailasa_Temple_at_Ellora_%28Cave_16%29.jpg",
    "sources": [
      "https://en.wikipedia.org/wiki/Kailasa_Temple,_Ellora"
    ]
  },
  {
    "name": "Kaputas Beach",
    "lat": 36.22892,
    "lon": 29.44912,
    "category": "beach",
    "country": "Turkey",
    "local_name": "Kaputaş Plajı",
    "note": "Narrow canyon beach between cliffs",
    "image": "https://upload.wikimedia.org/wikipedia/commons/thumb/9/9b/Turkiye_Antalya_Kaputa%C5%9F_Plaj%C4%B1.jpg/1280px-Turkiye_Antalya_Kaputa%C5%9F_Plaj%C4%B1.jpg",
    "sources": [
      "https://en.wikipedia.org/wiki/Kaputas_Beach"
    ]
  },
  {
    "name": "Karnak Temple",
    "lat": 25.7188,
    "lon": 32.6573,
    "category": "ruins",
    "country": "Egypt",
    "local_name": "الكرنك",
    "note": "Egyptian temple complex, 134-column Hypostyle Hall",
    "image": "https://upload.wikimedia.org/wikipedia/commons/thumb/6/60/Temple_de_Louxor_68.jpg/1280px-Temple_de_Louxor_68.jpg",
    "sources": [
      "https://en.wikipedia.org/wiki/Karnak"
    ]
  },
  {
    "name": "Kaunos",
    "lat": 36.82639,
    "lon": 28.62139,
    "category": "ruins",
    "country": "Turkey",
    "note": "Carian city with temple-fronted rock-cut tombs",
    "image": "https://upload.wikimedia.org/wikipedia/commons/thumb/5/5e/Kaunos_Kaya_Mezarlar%C4%B1.jpg/1280px-Kaunos_Kaya_Mezarlar%C4%B1.jpg",
    "sources": [
      "https://en.wikipedia.org/wiki/Kaunos"
    ]
  },
  {
    "name": "Kenroku-en",
    "lat": 36.5625,
    "lon": 136.6628,
    "category": "garden",
    "country": "Japan",
    "local_name": "兼六園",
    "note": "One of Japan's top three gardens, in Kanazawa",
    "image": "https://upload.wikimedia.org/wikipedia/commons/thumb/3/31/Stone_lantern_Kenrokuen.jpg/1280px-Stone_lantern_Kenrokuen.jpg",
    "sources": [
      "https://en.wikipedia.org/wiki/Kenroku-en"
    ]
  },
  {
    "name": "Kiyomizu-dera",
    "lat": 34.995,
    "lon": 135.785,
    "category": "religious",
    "country": "Japan",
    "local_name": "清水寺",
    "note": "Hillside temple with a nail-free wooden stage",
    "image": "https://upload.wikimedia.org/wikipedia/commons/thumb/3/3c/Kiyomizu.jpg/1280px-Kiyomizu.jpg",
    "sources": [
      "https://en.wikipedia.org/wiki/Kiyomizu-dera"
    ]
  },
  {
    "name": "Kolossi Castle",
    "lat": 34.66527,
    "lon": 32.93396,
    "category": "castle",
    "country": "Cyprus",
    "local_name": "Κάστρο του Κολοσσιού",
    "note": "15th-century Crusader castle of the Knights Hospitaller",
    "image": "https://upload.wikimedia.org/wikipedia/commons/thumb/4/49/Kolossi_Castle_01.JPG/1280px-Kolossi_Castle_01.JPG",
    "sources": [
      "https://en.wikipedia.org/wiki/Kolossi_Castle"
    ]
  },
  {
    "name": "Larnach Castle",
    "lat": -45.86166,
    "lon": 170.62721,
    "category": "castle",
    "country": "New Zealand",
    "note": "New Zealand's only castle, on the Otago Peninsula",
    "image": "https://upload.wikimedia.org/wikipedia/commons/thumb/f/fd/Larnach_Castle_and_fountain.jpg/1280px-Larnach_Castle_and_fountain.jpg",
    "sources": [
      "https://en.wikipedia.org/wiki/Larnach_Castle"
    ]
  },
  {
    "name": "Lenin's Mausoleum",
    "lat": 55.75361,
    "lon": 37.61972,
    "category": "monument",
    "country": "Russia",
    "local_name": "Мавзолей Ленина",
    "note": "Granite mausoleum housing Lenin's body, Red Square",
    "image": "https://upload.wikimedia.org/wikipedia/commons/thumb/f/f7/Mauzoleumlenina_%28cropped%29.jpeg/1280px-Mauzoleumlenina_%28cropped%29.jpeg",
    "sources": [
      "https://en.wikipedia.org/wiki/Lenin%27s_Mausoleum"
    ]
  },
  {
    "name": "Leshan Giant Buddha",
    "lat": 29.54472,
    "lon": 103.77333,
    "category": "religious",
    "country": "China",
    "local_name": "乐山大佛",
    "note": "World's largest stone Buddha, carved into a cliff",
    "image": "https://upload.wikimedia.org/wikipedia/commons/thumb/4/4c/36275-Leshan_%2849067653383%29.jpg/1280px-36275-Leshan_%2849067653383%29.jpg",
    "sources": [
      "https://en.wikipedia.org/wiki/Leshan_Giant_Buddha"
    ]
  },
  {
    "name": "Lion Monument",
    "lat": 47.05833,
    "lon": 8.31056,
    "category": "monument",
    "country": "Switzerland",
    "local_name": "Löwendenkmal",
    "note": "Dying lion carved in rock for fallen Swiss Guards",
    "image": "https://upload.wikimedia.org/wikipedia/commons/thumb/0/01/Lion_Monument.jpg/1280px-Lion_Monument.jpg",
    "sources": [
      "https://en.wikipedia.org/wiki/Lion_Monument"
    ]
  },
  {
    "name": "Louvre",
    "lat": 48.8611,
    "lon": 2.3358,
    "category": "museum",
    "country": "France",
    "local_name": "Musée du Louvre",
    "note": "World's most-visited museum, home of the Mona Lisa",
    "image": "https://upload.wikimedia.org/wikipedia/commons/thumb/6/66/Louvre_Museum_Wikimedia_Commons.jpg/1280px-Louvre_Museum_Wikimedia_Commons.jpg",
    "sources": [
      "https://en.wikipedia.org/wiki/Louvre"
    ]
  },
  {
    "name": "M+",
    "lat": 22.30096,
    "lon": 114.15964,
    "category": "museum",
    "country": "Hong Kong",
    "local_name": "M+ 博物館",
    "note": "Museum of modern visual culture in West Kowloon",
    "image": "https://upload.wikimedia.org/wikipedia/commons/thumb/1/1e/WKCD_M%2B%2C_2021.11.jpg/1280px-WKCD_M%2B%2C_2021.11.jpg",
    "sources": [
      "https://en.wikipedia.org/wiki/M%2B"
    ]
  },
  {
    "name": "Machu Picchu",
    "lat": -13.16333,
    "lon": -72.54556,
    "category": "ruins",
    "country": "Peru",
    "local_name": "Machu Pikchu",
    "note": "15th-century Inca citadel at 2,430 m in the Andes",
    "image": "https://upload.wikimedia.org/wikipedia/commons/thumb/2/2f/Machu_Picchu_Panorama_2025.jpg/1280px-Machu_Picchu_Panorama_2025.jpg",
    "sources": [
      "https://en.wikipedia.org/wiki/Machu_Picchu"
    ]
  },
  {
    "name": "Matsumoto Castle",
    "lat": 36.2388,
    "lon": 137.9688,
    "category": "castle",
    "country": "Japan",
    "local_name": "松本城",
    "note": "One of Japan's original castles with striking black exterior",
    "image": "https://upload.wikimedia.org/wikipedia/commons/thumb/e/e3/Matsumoto_Castle_Keep_Tower.jpg/1280px-Matsumoto_Castle_Keep_Tower.jpg",
    "sources": [
      "https://en.wikipedia.org/wiki/Matsumoto_Castle"
    ]
  },
  {
    "name": "Mausoleum of Constantina",
    "lat": 41.92261,
    "lon": 12.51738,
    "category": "religious",
    "country": "Italy",
    "local_name": "Santa Costanza",
    "note": "4th-century domed tomb with original Roman ceiling mosaics",
    "image": "https://upload.wikimedia.org/wikipedia/commons/thumb/9/94/Mausoleo_di_Santa_Costanza_-_esterno.jpg/1280px-Mausoleo_di_Santa_Costanza_-_esterno.jpg",
    "sources": [
      "https://en.wikipedia.org/wiki/Mausoleum_of_Constantina"
    ]
  },
  {
    "name": "Mausoleum of Qin Shi Huang",
    "lat": 34.38167,
    "lon": 109.25389,
    "category": "monument",
    "country": "China",
    "local_name": "秦始皇陵",
    "note": "First emperor's tomb, guarded by the Terracotta Army",
    "image": "https://upload.wikimedia.org/wikipedia/commons/thumb/7/74/Terra-cotta_Warriors_%2811523319873%29.jpg/1280px-Terra-cotta_Warriors_%2811523319873%29.jpg",
    "sources": [
      "https://en.wikipedia.org/wiki/Mausoleum_of_Qin_Shi_Huang"
    ]
  },
  {
    "name": "Maya Bay",
    "lat": 7.6783,
    "lon": 98.7648,
    "category": "beach",
    "country": "Thailand",
    "note": "Bay made famous by the film The Beach",
    "image": "https://upload.wikimedia.org/wikipedia/commons/thumb/3/34/Maya_Bay%2C_Thailand_by_Mike_Clegg_Photography.jpg/1280px-Maya_Bay%2C_Thailand_by_Mike_Clegg_Photography.jpg",
    "sources": [
      "https://en.wikipedia.org/wiki/Maya_Bay"
    ]
  },
  {
    "name": "Meidum Pyramid",
    "lat": 29.38806,
    "lon": 31.15694,
    "category": "monument",
    "country": "Egypt",
    "local_name": "ميدوم",
    "note": "Egypt's first straight-sided pyramid, collapsed",
    "image": "https://upload.wikimedia.org/wikipedia/commons/thumb/a/ad/Meidoum03.jpg/1280px-Meidoum03.jpg",
    "sources": [
      "https://en.wikipedia.org/wiki/Meidum"
    ]
  },
  {
    "name": "Meiji Shrine",
    "lat": 35.6764,
    "lon": 139.6993,
    "category": "religious",
    "country": "Japan",
    "local_name": "明治神宮",
    "note": "Forested Shinto shrine in central Tokyo",
    "image": "https://upload.wikimedia.org/wikipedia/commons/thumb/8/8b/Meiji_Jingu_2023-3.jpg/1280px-Meiji_Jingu_2023-3.jpg",
    "sources": [
      "https://en.wikipedia.org/wiki/Meiji_Shrine"
    ]
  },
  {
    "name": "Metropolitan Museum of Art",
    "lat": 40.7794,
    "lon": -73.9631,
    "category": "museum",
    "country": "United States",
    "note": "Largest art museum in the Americas, on Fifth Avenue",
    "image": "https://upload.wikimedia.org/wikipedia/commons/thumb/3/30/Metropolitan_Museum_of_Art_%28The_Met%29_-_Central_Park%2C_NYC.jpg/1280px-Metropolitan_Museum_of_Art_%28The_Met%29_-_Central_Park%2C_NYC.jpg",
    "sources": [
      "https://en.wikipedia.org/wiki/Metropolitan_Museum_of_Art"
    ]
  },
  {
    "name": "Mor Gabriel Monastery",
    "lat": 37.32178,
    "lon": 41.5385,
    "category": "religious",
    "country": "Turkey",
    "local_name": "ܕܝܪܐ ܕܡܪܝ ܓܒܪܐܝܠ",
    "note": "Syriac Orthodox monastery founded in 397 AD",
    "image": "https://upload.wikimedia.org/wikipedia/commons/thumb/c/cc/MorGabrielMonastery1.jpg/1280px-MorGabrielMonastery1.jpg",
    "sources": [
      "https://en.wikipedia.org/wiki/Mor_Gabriel_Monastery"
    ]
  },
  {
    "name": "Mount Rushmore",
    "lat": 43.87889,
    "lon": -103.45917,
    "category": "monument",
    "country": "United States",
    "note": "Four U.S. presidents carved into a granite mountain",
    "image": "https://upload.wikimedia.org/wikipedia/commons/thumb/8/87/Mount_Rushmore_detail_view_%28100MP%29.jpg/1280px-Mount_Rushmore_detail_view_%28100MP%29.jpg",
    "sources": [
      "https://en.wikipedia.org/wiki/Mount_Rushmore"
    ]
  },
  {
    "name": "Munch Museum",
    "lat": 59.9055,
    "lon": 10.7536,
    "category": "museum",
    "country": "Norway",
    "local_name": "Munch-museet",
    "note": "World's largest Munch collection, holds The Scream",
    "image": "https://upload.wikimedia.org/wikipedia/commons/thumb/0/0f/MUNCH_Museum_front_%282020%29.jpg/1280px-MUNCH_Museum_front_%282020%29.jpg",
    "sources": [
      "https://en.wikipedia.org/wiki/Munch_Museum"
    ]
  },
  {
    "name": "Museo del Prado",
    "lat": 40.4139,
    "lon": -3.6922,
    "category": "museum",
    "country": "Spain",
    "note": "Spain's national museum of European art in Madrid",
    "image": "https://upload.wikimedia.org/wikipedia/commons/thumb/6/68/Museo_del_Prado_2016_%2825185969599%29.jpg/1280px-Museo_del_Prado_2016_%2825185969599%29.jpg",
    "sources": [
      "https://en.wikipedia.org/wiki/Museo_del_Prado"
    ]
  },
  {
    "name": "Museum of Modern Art",
    "lat": 40.7617,
    "lon": -73.9775,
    "category": "museum",
    "country": "United States",
    "note": "MoMA, influential modern and contemporary art in Manhattan",
    "image": "https://upload.wikimedia.org/wikipedia/commons/thumb/f/f3/The_Museum_of_Modern_Art%2C_MoMA%2C_New_York_%2850415922541%29.jpg/1280px-The_Museum_of_Modern_Art%2C_MoMA%2C_New_York_%2850415922541%29.jpg",
    "sources": [
      "https://en.wikipedia.org/wiki/Museum_of_Modern_Art"
    ]
  },
  {
    "name": "Musée d'Orsay",
    "lat": 48.85997,
    "lon": 2.32653,
    "category": "museum",
    "country": "France",
    "note": "Impressionist art in a former Beaux-Arts railway station",
    "image": "https://upload.wikimedia.org/wikipedia/commons/thumb/6/63/Mus%C3%A9e_d%27Orsay_%2849570190661%29.jpg/1280px-Mus%C3%A9e_d%27Orsay_%2849570190661%29.jpg",
    "sources": [
      "https://en.wikipedia.org/wiki/Mus%C3%A9e_d%27Orsay"
    ]
  },
  {
    "name": "Naoshima",
    "lat": 34.45833,
    "lon": 133.98333,
    "category": "island",
    "country": "Japan",
    "local_name": "直島",
    "note": "Art island of Ando museums and outdoor installations",
    "image": "https://upload.wikimedia.org/wikipedia/commons/thumb/7/7a/Yellow_Pumpkin_Monument.jpg/1280px-Yellow_Pumpkin_Monument.jpg",
    "sources": [
      "https://en.wikipedia.org/wiki/Naoshima"
    ]
  },
  {
    "name": "Nara Park",
    "lat": 34.6851,
    "lon": 135.843,
    "category": "nature",
    "country": "Japan",
    "local_name": "奈良公園",
    "note": "Free-roaming deer among temple grounds and gardens",
    "image": "https://upload.wikimedia.org/wikipedia/commons/thumb/7/79/003_Nara_deer_in_Japan_-_deer_of_Nara_Park_under_autumn_leaves.jpg/1280px-003_Nara_deer_in_Japan_-_deer_of_Nara_Park_under_autumn_leaves.jpg",
    "sources": [
      "https://en.wikipedia.org/wiki/Nara_Park"
    ]
  },
  {
    "name": "National Gallery",
    "lat": 51.5089,
    "lon": -0.1283,
    "category": "museum",
    "country": "United Kingdom",
    "note": "Western European paintings on Trafalgar Square, London",
    "image": "https://upload.wikimedia.org/wikipedia/commons/thumb/f/f6/Galer%C3%ADa_Nacional%2C_Londres%2C_Inglaterra%2C_2014-08-07%2C_DD_036.JPG/1280px-Galer%C3%ADa_Nacional%2C_Londres%2C_Inglaterra%2C_2014-08-07%2C_DD_036.JPG",
    "sources": [
      "https://en.wikipedia.org/wiki/National_Gallery"
    ]
  },
  {
    "name": "National Gallery of Art",
    "lat": 38.8914,
    "lon": -77.02,
    "category": "museum",
    "country": "United States",
    "note": "US national art museum on the Washington Mall",
    "image": "https://upload.wikimedia.org/wikipedia/commons/thumb/2/2a/National_Gallery_of_Art_-_2026_%2855255088792%29.jpg/1280px-National_Gallery_of_Art_-_2026_%2855255088792%29.jpg",
    "sources": [
      "https://en.wikipedia.org/wiki/National_Gallery_of_Art"
    ]
  },
  {
    "name": "National Museum of Anthropology",
    "lat": 19.4261,
    "lon": -99.1861,
    "category": "museum",
    "country": "Mexico",
    "local_name": "Museo Nacional de Antropología",
    "note": "Mexico's largest museum, home of the Aztec Sun Stone",
    "image": "https://upload.wikimedia.org/wikipedia/commons/thumb/c/c7/Frontis_del_edificio_del_Museo_Nacional_de_Antropolog%C3%ADa.JPG/1280px-Frontis_del_edificio_del_Museo_Nacional_de_Antropolog%C3%ADa.JPG",
    "sources": [
      "https://en.wikipedia.org/wiki/National_Museum_of_Anthropology_(Mexico)"
    ]
  },
  {
    "name": "National Museum of Korea",
    "lat": 37.5239,
    "lon": 126.9803,
    "category": "museum",
    "country": "South Korea",
    "local_name": "국립중앙박물관",
    "note": "Flagship museum of Korean history and art in Seoul",
    "image": "https://upload.wikimedia.org/wikipedia/commons/thumb/2/24/National_Museum_of_Korea%2C_Seoul_%282%29_%2840236586235%29.jpg/1280px-National_Museum_of_Korea%2C_Seoul_%282%29_%2840236586235%29.jpg",
    "sources": [
      "https://en.wikipedia.org/wiki/National_Museum_of_Korea"
    ]
  },
  {
    "name": "Neak Pean",
    "lat": 13.46306,
    "lon": 103.89444,
    "category": "religious",
    "country": "Cambodia",
    "local_name": "ប្រាសាទនាគព័ន្ធ",
    "note": "Island temple in a circular healing pool",
    "image": "https://upload.wikimedia.org/wikipedia/commons/thumb/2/2c/Neak_Pean_%2840335935051%29.jpg/1280px-Neak_Pean_%2840335935051%29.jpg",
    "sources": [
      "https://en.wikipedia.org/wiki/Neak_Pean"
    ]
  },
  {
    "name": "Necropolis of Pantalica",
    "lat": 37.14167,
    "lon": 15.02833,
    "category": "ruins",
    "country": "Italy",
    "note": "Some 4,000 rock-cut tombs in limestone cliffs",
    "image": "https://upload.wikimedia.org/wikipedia/commons/thumb/2/24/Nekropolis_von_Pantalica.jpg/1280px-Nekropolis_von_Pantalica.jpg",
    "sources": [
      "https://en.wikipedia.org/wiki/Necropolis_of_Pantalica"
    ]
  },
  {
    "name": "Neues Museum",
    "lat": 52.52056,
    "lon": 13.39778,
    "category": "museum",
    "country": "Germany",
    "note": "Berlin's Egyptian and prehistory museum on Museum Island",
    "image": "https://upload.wikimedia.org/wikipedia/commons/thumb/d/dd/Berlin_Neues_Museum_001.JPG/1280px-Berlin_Neues_Museum_001.JPG",
    "sources": [
      "https://en.wikipedia.org/wiki/Neues_Museum"
    ]
  },
  {
    "name": "Neuschwanstein Castle",
    "lat": 47.5577,
    "lon": 10.7496,
    "category": "castle",
    "country": "Germany",
    "local_name": "Schloss Neuschwanstein",
    "note": "Ludwig II's 19th-c. fairy-tale castle in Bavaria",
    "image": "https://upload.wikimedia.org/wikipedia/commons/thumb/f/f8/Schloss_Neuschwanstein_2013.jpg/1280px-Schloss_Neuschwanstein_2013.jpg",
    "sources": [
      "https://en.wikipedia.org/wiki/Neuschwanstein_Castle"
    ]
  },
  {
    "name": "Nezu Shrine",
    "lat": 35.72028,
    "lon": 139.76083,
    "category": "religious",
    "country": "Japan",
    "local_name": "根津神社",
    "note": "Quiet shrine with a tunnel of torii gates and azalea garden",
    "image": "https://upload.wikimedia.org/wikipedia/commons/thumb/d/da/Nezu_Shrine_2010.jpg/1280px-Nezu_Shrine_2010.jpg",
    "sources": [
      "https://en.wikipedia.org/wiki/Nezu_Shrine"
    ]
  },
  {
    "name": "Nidaros Cathedral",
    "lat": 63.4269,
    "lon": 10.3969,
    "category": "religious",
    "country": "Norway",
    "local_name": "Nidarosdomen",
    "note": "Northernmost medieval cathedral, over St. Olav's grave",
    "image": "https://upload.wikimedia.org/wikipedia/commons/thumb/d/d6/Die_Nidaros_Kathedrale_in_Trondheim._03.jpg/1280px-Die_Nidaros_Kathedrale_in_Trondheim._03.jpg",
    "sources": [
      "https://en.wikipedia.org/wiki/Nidaros_Cathedral"
    ]
  },
  {
    "name": "Osaka Aquarium Kaiyukan",
    "lat": 34.6545,
    "lon": 135.429,
    "category": "museum",
    "country": "Japan",
    "local_name": "海遊館",
    "note": "Aquarium built around a central whale-shark tank",
    "image": "https://upload.wikimedia.org/wikipedia/commons/thumb/f/f4/Kaiy%C5%ABkan.jpg/1280px-Kaiy%C5%ABkan.jpg",
    "sources": [
      "https://en.wikipedia.org/wiki/Osaka_Aquarium_Kaiyukan"
    ]
  },
  {
    "name": "Osaka Castle",
    "lat": 34.6873,
    "lon": 135.5262,
    "category": "castle",
    "country": "Japan",
    "local_name": "大阪城",
    "note": "Landmark fortress in a large park in central Osaka",
    "image": "https://upload.wikimedia.org/wikipedia/commons/thumb/c/ca/Osaka_Castle_03bs3200.jpg/1280px-Osaka_Castle_03bs3200.jpg",
    "sources": [
      "https://en.wikipedia.org/wiki/Osaka_Castle"
    ]
  },
  {
    "name": "Palace of the Grand Master",
    "lat": 36.44578,
    "lon": 28.2241,
    "category": "castle",
    "country": "Greece",
    "local_name": "Παλάτι του Μεγάλου Μαγίστρου",
    "note": "Medieval Knights Hospitaller fortress in Rhodes Old Town",
    "image": "https://upload.wikimedia.org/wikipedia/commons/thumb/f/f1/Palace_of_the_Grand_Master_of_the_Knights_of_Rhodes_%289451928431%29.jpg/1280px-Palace_of_the_Grand_Master_of_the_Knights_of_Rhodes_%289451928431%29.jpg",
    "sources": [
      "https://en.wikipedia.org/wiki/Palace_of_the_Grand_Master_of_the_Knights_of_Rhodes"
    ]
  },
  {
    "name": "Paphos Archaeological Park",
    "lat": 34.75567,
    "lon": 32.40417,
    "category": "ruins",
    "country": "Cyprus",
    "note": "Roman villas with elaborate floor mosaics",
    "image": "https://upload.wikimedia.org/wikipedia/commons/thumb/1/1f/Casa_de_Teseo%2C_parque_arqueol%C3%B3gico_de_Pafos%2C_Chipre%2C_2021-12-10%2C_DD_28.jpg/1280px-Casa_de_Teseo%2C_parque_arqueol%C3%B3gico_de_Pafos%2C_Chipre%2C_2021-12-10%2C_DD_28.jpg",
    "sources": [
      "https://en.wikipedia.org/wiki/Paphos_Archaeological_Park"
    ]
  },
  {
    "name": "Park Güell",
    "lat": 41.4145,
    "lon": 2.1527,
    "category": "monument",
    "country": "Spain",
    "local_name": "Parc Güell",
    "note": "Gaudí's mosaic-tiled park on Carmel Hill, Barcelona",
    "image": "https://upload.wikimedia.org/wikipedia/commons/thumb/3/33/Parc_guell_-_panoramio.jpg/1280px-Parc_guell_-_panoramio.jpg",
    "sources": [
      "https://en.wikipedia.org/wiki/Park_G%C3%BCell"
    ]
  },
  {
    "name": "Pergamon Museum",
    "lat": 52.5213,
    "lon": 13.3965,
    "category": "museum",
    "country": "Germany",
    "local_name": "Pergamonmuseum",
    "note": "Berlin museum of monumental reconstructed antiquities",
    "image": "https://upload.wikimedia.org/wikipedia/commons/thumb/4/46/Pergamonmuseum_Front.jpg/1280px-Pergamonmuseum_Front.jpg",
    "sources": [
      "https://en.wikipedia.org/wiki/Pergamon_Museum"
    ]
  },
  {
    "name": "Persepolis",
    "lat": 29.9352,
    "lon": 52.8906,
    "category": "ruins",
    "country": "Iran",
    "local_name": "تخت جمشید",
    "note": "Ceremonial capital of the Achaemenid Empire",
    "image": "https://upload.wikimedia.org/wikipedia/commons/thumb/7/7d/Apadana_palace_persepolis.JPG/1280px-Apadana_palace_persepolis.JPG",
    "sources": [
      "https://en.wikipedia.org/wiki/Persepolis"
    ]
  },
  {
    "name": "Petra",
    "lat": 30.32861,
    "lon": 35.44194,
    "category": "ruins",
    "country": "Jordan",
    "local_name": "البتراء",
    "note": "Nabataean city carved into rose-red cliffs",
    "image": "https://upload.wikimedia.org/wikipedia/commons/thumb/2/21/Nabatean_Treasury_in_Petra%2C_Jordan_%284053066453%29.jpg/1280px-Nabatean_Treasury_in_Petra%2C_Jordan_%284053066453%29.jpg",
    "sources": [
      "https://en.wikipedia.org/wiki/Petra"
    ]
  },
  {
    "name": "Pont du Gard",
    "lat": 43.9472,
    "lon": 4.5354,
    "category": "monument",
    "country": "France",
    "note": "Three-tier Roman aqueduct bridge spanning the Gardon",
    "image": "https://upload.wikimedia.org/wikipedia/commons/thumb/4/42/Pont_du_Gard_BLS.jpg/1280px-Pont_du_Gard_BLS.jpg",
    "sources": [
      "https://en.wikipedia.org/wiki/Pont_du_Gard"
    ]
  },
  {
    "name": "Preah Khan",
    "lat": 13.46196,
    "lon": 103.87159,
    "category": "religious",
    "country": "Cambodia",
    "local_name": "ប្រាសាទព្រះខ័ន",
    "note": "Jungle temple that housed a Buddhist university",
    "image": "https://upload.wikimedia.org/wikipedia/commons/thumb/e/e7/Preah_Khan%2C_Angkor%2C_Camboya%2C_2013-08-17%2C_DD_26.JPG/1280px-Preah_Khan%2C_Angkor%2C_Camboya%2C_2013-08-17%2C_DD_26.JPG",
    "sources": [
      "https://en.wikipedia.org/wiki/Preah_Khan"
    ]
  },
  {
    "name": "Pushkin Museum",
    "lat": 55.74703,
    "lon": 37.60603,
    "category": "museum",
    "country": "Russia",
    "local_name": "Государственный музей изобразительных искусств имени А. С. Пушкина",
    "note": "European art museum named for Pushkin, Moscow",
    "image": "https://upload.wikimedia.org/wikipedia/commons/thumb/f/f6/Gmii.jpg/1280px-Gmii.jpg",
    "sources": [
      "https://en.wikipedia.org/wiki/Pushkin_Museum"
    ]
  },
  {
    "name": "Pyramid of Cestius",
    "lat": 41.87639,
    "lon": 12.48083,
    "category": "monument",
    "country": "Italy",
    "local_name": "Piramide Cestia",
    "note": "Egyptian-style pyramid tomb in Rome, c. 12 BC",
    "image": "https://upload.wikimedia.org/wikipedia/commons/thumb/9/9e/Piramide_Cestia.jpg/1280px-Piramide_Cestia.jpg",
    "sources": [
      "https://en.wikipedia.org/wiki/Pyramid_of_Cestius"
    ]
  },
  {
    "name": "Pyramid of Djoser",
    "lat": 29.8711,
    "lon": 31.2167,
    "category": "monument",
    "country": "Egypt",
    "note": "Egypt's oldest pyramid, a six-tier step pyramid",
    "image": "https://upload.wikimedia.org/wikipedia/commons/thumb/2/2e/Saqqara_pyramid_ver_2.jpg/1280px-Saqqara_pyramid_ver_2.jpg",
    "sources": [
      "https://en.wikipedia.org/wiki/Pyramid_of_Djoser"
    ]
  },
  {
    "name": "Pyramid of Khafre",
    "lat": 29.97611,
    "lon": 31.13083,
    "category": "monument",
    "country": "Egypt",
    "note": "Second-tallest Giza pyramid, still capped with casing stone",
    "image": "https://upload.wikimedia.org/wikipedia/commons/thumb/6/69/Pyramid_of_Khafre_and_Sphinx%2C_Giza%2C_Greater_Cairo%2C_Egypt.jpg/1280px-Pyramid_of_Khafre_and_Sphinx%2C_Giza%2C_Greater_Cairo%2C_Egypt.jpg",
    "sources": [
      "https://en.wikipedia.org/wiki/Pyramid_of_Khafre"
    ]
  },
  {
    "name": "Pyramid of Menkaure",
    "lat": 29.9725,
    "lon": 31.12833,
    "category": "monument",
    "country": "Egypt",
    "note": "Smallest of the three main Giza pyramids",
    "image": "https://upload.wikimedia.org/wikipedia/commons/thumb/3/38/Cairo%2C_Gizeh%2C_Pyramid_of_Menkaure%2C_Egypt%2C_Oct_2005.jpg/1280px-Cairo%2C_Gizeh%2C_Pyramid_of_Menkaure%2C_Egypt%2C_Oct_2005.jpg",
    "sources": [
      "https://en.wikipedia.org/wiki/Pyramid_of_Menkaure"
    ]
  },
  {
    "name": "Pyramid of the Moon",
    "lat": 19.6996,
    "lon": -98.844,
    "category": "monument",
    "country": "Mexico",
    "local_name": "Pirámide de la Luna",
    "note": "Closes the Avenue of the Dead, echoing Cerro Gordo",
    "image": "https://upload.wikimedia.org/wikipedia/commons/thumb/a/a1/Piramide_de_la_Luna_072006.jpg/1280px-Piramide_de_la_Luna_072006.jpg",
    "sources": [
      "https://en.wikipedia.org/wiki/Pyramid_of_the_Moon"
    ]
  },
  {
    "name": "Pyramid of the Sun",
    "lat": 19.693,
    "lon": -98.844,
    "category": "monument",
    "country": "Mexico",
    "local_name": "Pirámide del Sol",
    "note": "Largest Teotihuacan pyramid, over a sacred cave",
    "image": "https://upload.wikimedia.org/wikipedia/commons/thumb/3/3b/2020-02-11_Teotihuacan_la_Avenida_de_los_Muertos_y_la_Pir%C3%A1mide_del_Sol.jpg/1280px-2020-02-11_Teotihuacan_la_Avenida_de_los_Muertos_y_la_Pir%C3%A1mide_del_Sol.jpg",
    "sources": [
      "https://en.wikipedia.org/wiki/Pyramid_of_the_Sun"
    ]
  },
  {
    "name": "Qabus Tower",
    "lat": 37.25803,
    "lon": 55.169,
    "category": "monument",
    "country": "Iran",
    "local_name": "برج گنبد قابوس",
    "note": "11th-c. brick funerary tower for Qabus, NE Iran",
    "image": "https://upload.wikimedia.org/wikipedia/commons/thumb/5/57/%DA%AF%D9%86%D8%A8%D8%AF_%DA%A9%D8%A7%D9%88%D9%88%D8%B3_-_%D9%BE%D8%A7%D8%B1%DA%AF_%DA%AF%D9%86%D8%A8%D8%AF.jpg/1280px-%DA%AF%D9%86%D8%A8%D8%AF_%DA%A9%D8%A7%D9%88%D9%88%D8%B3_-_%D9%BE%D8%A7%D8%B1%DA%AF_%DA%AF%D9%86%D8%A8%D8%AF.jpg",
    "sources": [
      "https://en.wikipedia.org/wiki/Gonbad-e_Qabus_(tower)"
    ]
  },
  {
    "name": "Qavam House",
    "lat": 29.60784,
    "lon": 52.55257,
    "category": "garden",
    "country": "Iran",
    "local_name": "نارنجستان قوام",
    "note": "Qajar mansion and orange garden in Shiraz",
    "image": "https://upload.wikimedia.org/wikipedia/commons/thumb/7/72/Qavam_House_2018.jpg/1280px-Qavam_House_2018.jpg",
    "sources": [
      "https://en.wikipedia.org/wiki/Qavam_House"
    ]
  },
  {
    "name": "Railay Beach",
    "lat": 8.0103,
    "lon": 98.8378,
    "category": "beach",
    "country": "Thailand",
    "local_name": "ไร่เลย์",
    "note": "Only reachable by boat, surrounded by limestone karst cliffs",
    "image": "https://upload.wikimedia.org/wikipedia/commons/thumb/4/40/Railay_Beach_5.jpg/1280px-Railay_Beach_5.jpg",
    "sources": [
      "https://en.wikipedia.org/wiki/Railay_Beach"
    ]
  },
  {
    "name": "Red Basilica",
    "lat": 39.1219,
    "lon": 27.1833,
    "category": "ruins",
    "country": "Turkey",
    "local_name": "Kızıl Avlu",
    "note": "Monumental Roman temple to Egyptian gods at Pergamon",
    "image": "https://upload.wikimedia.org/wikipedia/commons/thumb/b/b0/Red_basilica_west_view.jpg/1280px-Red_basilica_west_view.jpg",
    "sources": [
      "https://en.wikipedia.org/wiki/Red_Basilica"
    ]
  },
  {
    "name": "Red Pyramid",
    "lat": 29.80833,
    "lon": 31.20583,
    "category": "monument",
    "country": "Egypt",
    "note": "Egypt's first true smooth-sided pyramid",
    "image": "https://upload.wikimedia.org/wikipedia/commons/thumb/b/b4/Rote_Pyramide_%28Dahschur%29_04.jpg/1280px-Rote_Pyramide_%28Dahschur%29_04.jpg",
    "sources": [
      "https://en.wikipedia.org/wiki/Red_Pyramid"
    ]
  },
  {
    "name": "Revash",
    "lat": -6.5407,
    "lon": -77.8562,
    "category": "ruins",
    "country": "Peru",
    "note": "Chachapoya cliff tombs shaped like tiny houses",
    "image": "https://upload.wikimedia.org/wikipedia/commons/thumb/7/78/Mausoleos_de_Revash-nX-11.jpg/1280px-Mausoleos_de_Revash-nX-11.jpg",
    "sources": [
      "https://en.wikipedia.org/wiki/Revash"
    ]
  },
  {
    "name": "Reynisfjara",
    "lat": 63.4035,
    "lon": -19.0474,
    "category": "beach",
    "country": "Iceland",
    "note": "Black volcanic sand and basalt columns",
    "image": "https://upload.wikimedia.org/wikipedia/commons/thumb/7/74/Reynisfjara_Beach_Looking_West_Towards_Dyrh%C3%B3laey.jpg/1280px-Reynisfjara_Beach_Looking_West_Towards_Dyrh%C3%B3laey.jpg",
    "sources": [
      "https://en.wikipedia.org/wiki/Reynisfjara"
    ]
  },
  {
    "name": "Rialto Bridge",
    "lat": 45.4381,
    "lon": 12.3358,
    "category": "bridge",
    "country": "Italy",
    "local_name": "Ponte di Rialto",
    "note": "16th-century stone arch over the Grand Canal",
    "image": "https://upload.wikimedia.org/wikipedia/commons/thumb/0/0b/Rialto_2025_4.jpg/1280px-Rialto_2025_4.jpg",
    "sources": [
      "https://en.wikipedia.org/wiki/Rialto_Bridge"
    ]
  },
  {
    "name": "Ribat of Zein-o-din",
    "lat": 31.41165,
    "lon": 54.70687,
    "category": "monument",
    "country": "Iran",
    "local_name": "رباط زين الدين",
    "note": "Safavid Silk Road caravanserai with circular towers",
    "image": "https://upload.wikimedia.org/wikipedia/commons/thumb/8/8d/Zeinodin_Caravanserai.jpg/1280px-Zeinodin_Caravanserai.jpg",
    "sources": [
      "https://en.wikipedia.org/wiki/Ribat_of_Zein-o-din"
    ]
  },
  {
    "name": "Ribat-i Sharaf",
    "lat": 36.2664,
    "lon": 60.6555,
    "category": "monument",
    "country": "Iran",
    "note": "12th-c. Seljuk caravanserai, northeast Iran",
    "image": "https://upload.wikimedia.org/wikipedia/commons/thumb/f/fd/%D9%86%D9%85%D8%A7%DB%8C_%D8%B3%D9%87_%D8%B1%D8%AE_%D8%B1%D8%A8%D8%A7%D8%B7_%D8%B4%D8%B1%D9%81.jpg/1280px-%D9%86%D9%85%D8%A7%DB%8C_%D8%B3%D9%87_%D8%B1%D8%AE_%D8%B1%D8%A8%D8%A7%D8%B7_%D8%B4%D8%B1%D9%81.jpg",
    "sources": [
      "https://en.wikipedia.org/wiki/Ribat-i_Sharaf"
    ]
  },
  {
    "name": "Rijksmuseum",
    "lat": 52.36,
    "lon": 4.8853,
    "category": "museum",
    "country": "Netherlands",
    "note": "Dutch national museum, home of Rembrandt's Night Watch",
    "image": "https://upload.wikimedia.org/wikipedia/commons/thumb/8/80/South_facade_of_the_Rijksmuseum_Amsterdam_%28DSCF0528%29.jpg/1280px-South_facade_of_the_Rijksmuseum_Amsterdam_%28DSCF0528%29.jpg",
    "sources": [
      "https://en.wikipedia.org/wiki/Rijksmuseum"
    ]
  },
  {
    "name": "Rock Sculpture of Decebalus",
    "lat": 44.64118,
    "lon": 22.29125,
    "category": "monument",
    "country": "Romania",
    "local_name": "Chipul lui Decebal",
    "note": "55 m face of King Decebalus carved in a cliff",
    "image": "https://upload.wikimedia.org/wikipedia/commons/thumb/5/52/Statuia_Chipul_lui_Decebal_-_Cazanele_Dun%C4%83rii%2C_Rom%C3%A2nia.jpg/1280px-Statuia_Chipul_lui_Decebal_-_Cazanele_Dun%C4%83rii%2C_Rom%C3%A2nia.jpg",
    "sources": [
      "https://en.wikipedia.org/wiki/Rock_sculpture_of_Decebalus"
    ]
  },
  {
    "name": "Rock-Hewn Church of St. George",
    "lat": 12.03174,
    "lon": 39.04113,
    "category": "religious",
    "country": "Ethiopia",
    "local_name": "ቤተ ጊዮርጊስ",
    "note": "Cross-shaped church carved from solid rock",
    "image": "https://upload.wikimedia.org/wikipedia/commons/thumb/a/aa/Lalibela%2C_san_giorgio%2C_esterno_24.jpg/1280px-Lalibela%2C_san_giorgio%2C_esterno_24.jpg",
    "sources": [
      "https://en.wikipedia.org/wiki/Church_of_Saint_George,_Lalibela"
    ]
  },
  {
    "name": "Rotunda of Galerius",
    "lat": 40.6333,
    "lon": 22.95285,
    "category": "religious",
    "country": "Greece",
    "local_name": "Ροτόντα",
    "note": "4th-century domed mausoleum, later church and mosque",
    "image": "https://upload.wikimedia.org/wikipedia/commons/thumb/3/30/Rotunda_of_Galerius435.jpg/1280px-Rotunda_of_Galerius435.jpg",
    "sources": [
      "https://en.wikipedia.org/wiki/Arch_of_Galerius_and_Rotunda"
    ]
  },
  {
    "name": "Russian Museum",
    "lat": 59.93859,
    "lon": 30.33222,
    "category": "museum",
    "country": "Russia",
    "local_name": "Государственный Русский музей",
    "note": "World's largest collection of Russian art, St Petersburg",
    "image": "https://upload.wikimedia.org/wikipedia/commons/thumb/8/80/%D0%9C%D0%B8%D1%85%D0%B0%D0%B9%D0%BB%D0%BE%D0%B2%D1%81%D0%BA%D0%B8%D0%B9_%D0%B4%D0%B2%D0%BE%D1%80%D0%B5%D1%86%2C_%D0%B4%D0%B2%D0%BE%D1%8003.jpg/1280px-%D0%9C%D0%B8%D1%85%D0%B0%D0%B9%D0%BB%D0%BE%D0%B2%D1%81%D0%BA%D0%B8%D0%B9_%D0%B4%D0%B2%D0%BE%D1%80%D0%B5%D1%86%2C_%D0%B4%D0%B2%D0%BE%D1%8003.jpg",
    "sources": [
      "https://en.wikipedia.org/wiki/Russian_Museum"
    ]
  },
  {
    "name": "Sa'd al-Saltaneh Caravanserai",
    "lat": 36.26889,
    "lon": 50.00056,
    "category": "monument",
    "country": "Iran",
    "local_name": "کاروانسرای سعدالسلطنه",
    "note": "Qajar urban caravanserai, the largest in Iran, Qazvin",
    "image": "https://upload.wikimedia.org/wikipedia/commons/thumb/4/4e/%D8%B3%D8%B1%D8%A7%DB%8C_%D8%B3%D8%B9%D8%AF%D8%A7%D9%84%D8%B3%D9%84%D8%B7%D9%86%D9%87_%D9%82%D8%B2%D9%88%DB%8C%D9%86.jpg/1280px-%D8%B3%D8%B1%D8%A7%DB%8C_%D8%B3%D8%B9%D8%AF%D8%A7%D9%84%D8%B3%D9%84%D8%B7%D9%86%D9%87_%D9%82%D8%B2%D9%88%DB%8C%D9%86.jpg",
    "sources": [
      "https://en.wikipedia.org/wiki/Sa%27d_al-Saltaneh_Caravanserai"
    ]
  },
  {
    "name": "Sagrada Família",
    "lat": 41.4036,
    "lon": 2.1744,
    "category": "religious",
    "country": "Spain",
    "local_name": "Basílica de la Sagrada Família",
    "note": "Gaudí's Barcelona basilica, begun 1882",
    "image": "https://upload.wikimedia.org/wikipedia/commons/thumb/7/78/SF_maig_2026.jpg/1280px-SF_maig_2026.jpg",
    "sources": [
      "https://en.wikipedia.org/wiki/Sagrada_Fam%C3%ADlia"
    ]
  },
  {
    "name": "Saint Basil's Cathedral",
    "lat": 55.7525,
    "lon": 37.62306,
    "category": "religious",
    "country": "Russia",
    "local_name": "Собор Василия Блаженного",
    "note": "Onion-domed cathedral on Moscow's Red Square",
    "image": "https://upload.wikimedia.org/wikipedia/commons/thumb/9/98/030524-Moscow-IMG_9807-2.jpg/1280px-030524-Moscow-IMG_9807-2.jpg",
    "sources": [
      "https://en.wikipedia.org/wiki/Saint_Basil%27s_Cathedral"
    ]
  },
  {
    "name": "Sanssouci Palace",
    "lat": 52.40326,
    "lon": 13.03863,
    "category": "palace",
    "country": "Germany",
    "local_name": "Schloss Sanssouci",
    "note": "Rococo summer palace of Frederick the Great, Potsdam",
    "image": "https://upload.wikimedia.org/wikipedia/commons/thumb/8/8b/Schloss_Sanssouci_2014.jpg/1280px-Schloss_Sanssouci_2014.jpg",
    "sources": [
      "https://en.wikipedia.org/wiki/Sanssouci"
    ]
  },
  {
    "name": "Santi Cosma e Damiano",
    "lat": 41.89206,
    "lon": 12.48743,
    "category": "religious",
    "country": "Italy",
    "local_name": "Basilica dei Santi Cosma e Damiano",
    "note": "6th-century church in the Forum with Byzantine apse mosaic",
    "image": "https://upload.wikimedia.org/wikipedia/commons/thumb/f/fd/Palatine_view_of_temple_of_romulus.jpg/1280px-Palatine_view_of_temple_of_romulus.jpg",
    "sources": [
      "https://en.wikipedia.org/wiki/Santi_Cosma_e_Damiano,_Rome"
    ]
  },
  {
    "name": "Santoni",
    "lat": 37.05794,
    "lon": 14.89506,
    "category": "religious",
    "country": "Italy",
    "note": "Twelve rock-cut reliefs of the goddess Cybele",
    "sources": [
      "https://en.wikipedia.org/wiki/Santoni"
    ]
  },
  {
    "name": "Sassi di Matera",
    "lat": 40.6667,
    "lon": 16.6083,
    "category": "cave",
    "country": "Italy",
    "note": "Ancient cave dwellings inhabited for millennia",
    "image": "https://upload.wikimedia.org/wikipedia/commons/thumb/a/a0/Matera_boenisch_nov_2005.jpg/1280px-Matera_boenisch_nov_2005.jpg",
    "sources": [
      "https://en.wikipedia.org/wiki/Sassi_di_Matera"
    ]
  },
  {
    "name": "Sedlec Ossuary",
    "lat": 49.9614,
    "lon": 15.2883,
    "category": "religious",
    "country": "Czech Republic",
    "local_name": "Kostnice v Sedlci",
    "note": "Chapel decorated with bones of 40,000 people",
    "image": "https://upload.wikimedia.org/wikipedia/commons/thumb/1/14/Bone_Chandelabra.jpg/1280px-Bone_Chandelabra.jpg",
    "sources": [
      "https://en.wikipedia.org/wiki/Sedlec_Ossuary"
    ]
  },
  {
    "name": "Seljalandsfoss",
    "lat": 63.61583,
    "lon": -19.99278,
    "category": "waterfall",
    "country": "Iceland",
    "note": "60 m waterfall you can walk behind",
    "image": "https://upload.wikimedia.org/wikipedia/commons/thumb/3/33/Idyllic_landscape_with_a_waterfall_%28Unsplash%29.jpg/1280px-Idyllic_landscape_with_a_waterfall_%28Unsplash%29.jpg",
    "sources": [
      "https://en.wikipedia.org/wiki/Seljalandsfoss"
    ]
  },
  {
    "name": "Senso-ji",
    "lat": 35.7148,
    "lon": 139.7967,
    "category": "religious",
    "country": "Japan",
    "local_name": "浅草寺",
    "note": "Tokyo's oldest temple with the Kaminarimon gate",
    "image": "https://upload.wikimedia.org/wikipedia/commons/thumb/4/43/Sensoji_2023.jpg/1280px-Sensoji_2023.jpg",
    "sources": [
      "https://en.wikipedia.org/wiki/Sens%C5%8D-ji"
    ]
  },
  {
    "name": "Sforza Castle",
    "lat": 45.47,
    "lon": 9.17861,
    "category": "castle",
    "country": "Italy",
    "local_name": "Castello Sforzesco",
    "note": "15th-c. Milanese fortress, now civic museums",
    "image": "https://upload.wikimedia.org/wikipedia/commons/thumb/8/8a/Castello_Sforzesco_da_alto.jpg/1280px-Castello_Sforzesco_da_alto.jpg",
    "sources": [
      "https://en.wikipedia.org/wiki/Sforza_Castle"
    ]
  },
  {
    "name": "Shanghai Science and Technology Museum",
    "lat": 31.22028,
    "lon": 121.53778,
    "category": "museum",
    "country": "China",
    "local_name": "上海科技馆",
    "note": "Major science museum in Pudong, Shanghai",
    "image": "https://upload.wikimedia.org/wikipedia/commons/thumb/6/69/Shanghai_Science_and_Technology_Museum_20260418_%282%29.jpg/1280px-Shanghai_Science_and_Technology_Museum_20260418_%282%29.jpg",
    "sources": [
      "https://en.wikipedia.org/wiki/Shanghai_Science_and_Technology_Museum"
    ]
  },
  {
    "name": "Shazdeh Garden",
    "lat": 30.02388,
    "lon": 57.28209,
    "category": "garden",
    "country": "Iran",
    "local_name": "باغ شاهزاده ماهان",
    "note": "Qajar Persian garden with terraced waterworks, Mahan",
    "image": "https://upload.wikimedia.org/wikipedia/commons/thumb/3/3c/%D8%A8%D8%A7%D8%BA_%D8%B4%D8%A7%D9%87%D8%B2%D8%A7%D8%AF%D9%87-%D9%85%D8%A7%D9%87%D8%A7%D9%86-%DA%A9%D8%B1%D9%85%D8%A7%D9%86.jpg/1280px-%D8%A8%D8%A7%D8%BA_%D8%B4%D8%A7%D9%87%D8%B2%D8%A7%D8%AF%D9%87-%D9%85%D8%A7%D9%87%D8%A7%D9%86-%DA%A9%D8%B1%D9%85%D8%A7%D9%86.jpg",
    "sources": [
      "https://en.wikipedia.org/wiki/Shazdeh_Garden"
    ]
  },
  {
    "name": "Shinjuku Gyoen",
    "lat": 35.6852,
    "lon": 139.71,
    "category": "garden",
    "country": "Japan",
    "local_name": "新宿御苑",
    "note": "Garden blending Japanese, English and French styles",
    "image": "https://upload.wikimedia.org/wikipedia/commons/thumb/9/9d/Shinjuku_Gyoen_National_Garden_-_sakura_3.JPG/1280px-Shinjuku_Gyoen_National_Garden_-_sakura_3.JPG",
    "sources": [
      "https://en.wikipedia.org/wiki/Shinjuku_Gyoen"
    ]
  },
  {
    "name": "Shirakawa-go",
    "lat": 36.2576,
    "lon": 136.9066,
    "category": "village",
    "country": "Japan",
    "local_name": "白川郷",
    "note": "Traditional steep-roofed farmhouses in a mountain village",
    "image": "https://upload.wikimedia.org/wikipedia/commons/thumb/e/e6/Ogi_Shirakawa-g%C5%8D%2C_Gifu%2C_Japan.jpg/1280px-Ogi_Shirakawa-g%C5%8D%2C_Gifu%2C_Japan.jpg",
    "sources": [
      "https://en.wikipedia.org/wiki/Shirakawa-g%C5%8D"
    ]
  },
  {
    "name": "Shrine of Sheikh Safi al-Din",
    "lat": 38.24861,
    "lon": 48.29139,
    "category": "religious",
    "country": "Iran",
    "local_name": "مجموعه آرامگاه و خانقاه شیخ صفی‌الدین",
    "note": "16th-c. Safavid Sufi shrine in Ardabil, northwest Iran",
    "image": "https://upload.wikimedia.org/wikipedia/commons/thumb/5/51/Sheikh_Safi_Al_Din_Ardabili_Tomb.jpg/1280px-Sheikh_Safi_Al_Din_Ardabili_Tomb.jpg",
    "sources": [
      "https://en.wikipedia.org/wiki/Sheikh_Safi_al-Din_Kh%C4%81neg%C4%81h_and_Shrine_Ensemble"
    ]
  },
  {
    "name": "Shuri Castle",
    "lat": 26.217,
    "lon": 127.7195,
    "category": "castle",
    "country": "Japan",
    "local_name": "首里城",
    "note": "Ryukyuan royal palace in Okinawa",
    "image": "https://upload.wikimedia.org/wikipedia/commons/thumb/5/56/Naha_Okinawa_Japan_Shuri-Castle-01.jpg/1280px-Naha_Okinawa_Japan_Shuri-Castle-01.jpg",
    "sources": [
      "https://en.wikipedia.org/wiki/Shuri_Castle"
    ]
  },
  {
    "name": "Shushtar Historical Hydraulic System",
    "lat": 32.0441,
    "lon": 48.8585,
    "category": "archaeological-site",
    "country": "Iran",
    "local_name": "سازه‌های آبی شوشتر",
    "note": "Sasanian canals, dams, and watermills, southwest Iran",
    "image": "https://upload.wikimedia.org/wikipedia/commons/thumb/2/26/Shushtar_Historical_Hydraulic_System_Panorama.jpg/1280px-Shushtar_Historical_Hydraulic_System_Panorama.jpg",
    "sources": [
      "https://en.wikipedia.org/wiki/Shushtar_Historical_Hydraulic_System"
    ]
  },
  {
    "name": "Sigiriya",
    "lat": 7.95694,
    "lon": 80.75972,
    "category": "ruins",
    "country": "Sri Lanka",
    "local_name": "සීගිරිය",
    "note": "5th-century palace atop a 180 m rock column",
    "image": "https://upload.wikimedia.org/wikipedia/commons/thumb/e/e6/Sigiriya_%28141688197%29.jpeg/1280px-Sigiriya_%28141688197%29.jpeg",
    "sources": [
      "https://en.wikipedia.org/wiki/Sigiriya"
    ]
  },
  {
    "name": "Skaros",
    "lat": 36.43246,
    "lon": 25.41818,
    "category": "ruins",
    "country": "Greece",
    "local_name": "Σκάρος",
    "note": "Ruined Venetian rock fortress in Imerovigli",
    "image": "https://upload.wikimedia.org/wikipedia/commons/thumb/f/f1/Skaros_Rock.jpg/1280px-Skaros_Rock.jpg",
    "sources": [
      "https://en.wikipedia.org/wiki/Skaros"
    ]
  },
  {
    "name": "Somerset House",
    "lat": 51.5111,
    "lon": -0.1178,
    "category": "landmark",
    "country": "United Kingdom",
    "note": "Neoclassical arts centre with a fountain courtyard, London",
    "image": "https://upload.wikimedia.org/wikipedia/commons/thumb/9/92/Somerset_House_courtyard_%2801%29.JPG/1280px-Somerset_House_courtyard_%2801%29.JPG",
    "sources": [
      "https://en.wikipedia.org/wiki/Somerset_House"
    ]
  },
  {
    "name": "Son Doong Cave",
    "lat": 17.45694,
    "lon": 106.2875,
    "category": "cave",
    "country": "Vietnam",
    "local_name": "Hang Sơn Đoòng",
    "note": "World's largest cave by volume",
    "image": "https://upload.wikimedia.org/wikipedia/commons/thumb/c/cd/Son_Doong_Cave_DB_%281%29.jpg/1280px-Son_Doong_Cave_DB_%281%29.jpg",
    "sources": [
      "https://en.wikipedia.org/wiki/Hang_Sơn_Đoòng"
    ]
  },
  {
    "name": "Spring Temple Buddha",
    "lat": 33.77508,
    "lon": 112.45093,
    "category": "monument",
    "country": "China",
    "local_name": "中原大佛",
    "note": "128 m gilded statue of Vairocana Buddha",
    "image": "https://upload.wikimedia.org/wikipedia/commons/thumb/6/6c/Spring_Temple_Buddha_05.jpg/1280px-Spring_Temple_Buddha_05.jpg",
    "sources": [
      "https://en.wikipedia.org/wiki/Spring_Temple_Buddha"
    ]
  },
  {
    "name": "St. Gereon's Basilica",
    "lat": 50.94333,
    "lon": 6.94583,
    "category": "religious",
    "country": "Germany",
    "local_name": "Basilika Sankt Gereon",
    "note": "Romanesque church with Europe's largest dome of its era",
    "image": "https://upload.wikimedia.org/wikipedia/commons/thumb/6/61/Frontal_view_-_St._Gereon_-_Cologne_-_Germany_2017_%282%29.jpg/1280px-Frontal_view_-_St._Gereon_-_Cologne_-_Germany_2017_%282%29.jpg",
    "sources": [
      "https://en.wikipedia.org/wiki/St._Gereon%27s_Basilica,_Cologne"
    ]
  },
  {
    "name": "St. Hilarion Castle",
    "lat": 35.3123,
    "lon": 33.2808,
    "category": "castle",
    "country": "Cyprus",
    "local_name": "Κάστρο του Αγίου Ιλαρίωνα",
    "note": "Mountain-top Crusader castle in the Kyrenia range",
    "image": "https://upload.wikimedia.org/wikipedia/commons/thumb/f/fe/Saint_Hilarion_Castle%2C_Northern_Cyprus_-_panoramio_%286%29.jpg/1280px-Saint_Hilarion_Castle%2C_Northern_Cyprus_-_panoramio_%286%29.jpg",
    "sources": [
      "https://en.wikipedia.org/wiki/St._Hilarion_Castle"
    ]
  },
  {
    "name": "State Historical Museum",
    "lat": 55.755,
    "lon": 37.6181,
    "category": "museum",
    "country": "Russia",
    "local_name": "Государственный исторический музей",
    "note": "Russian national history museum on Red Square, Moscow",
    "image": "https://upload.wikimedia.org/wikipedia/commons/thumb/9/92/Museo_Estatal_de_Historia%2C_Mosc%C3%BA%2C_Rusia%2C_2016-10-03%2C_DD_49.jpg/1280px-Museo_Estatal_de_Historia%2C_Mosc%C3%BA%2C_Rusia%2C_2016-10-03%2C_DD_49.jpg",
    "sources": [
      "https://en.wikipedia.org/wiki/State_Historical_Museum"
    ]
  },
  {
    "name": "Statue of Liberty",
    "lat": 40.68917,
    "lon": -74.04444,
    "category": "monument",
    "country": "United States",
    "note": "France's 1886 gift, icon of freedom and welcome",
    "image": "https://upload.wikimedia.org/wikipedia/commons/thumb/c/c1/The_Statue_of_Liberty_%2810197568643%29.jpg/1280px-The_Statue_of_Liberty_%2810197568643%29.jpg",
    "sources": [
      "https://en.wikipedia.org/wiki/Statue_of_Liberty"
    ]
  },
  {
    "name": "Statue of Unity",
    "lat": 21.838,
    "lon": 73.7191,
    "category": "monument",
    "country": "India",
    "note": "World's tallest statue, 182 m, of Sardar Patel",
    "image": "https://upload.wikimedia.org/wikipedia/commons/thumb/7/78/Statue_of_Unity_2.jpg/1280px-Statue_of_Unity_2.jpg",
    "sources": [
      "https://en.wikipedia.org/wiki/Statue_of_Unity"
    ]
  },
  {
    "name": "Stonehenge",
    "lat": 51.17889,
    "lon": -1.82611,
    "category": "monument",
    "country": "United Kingdom",
    "note": "Prehistoric standing stone circle on Salisbury Plain",
    "image": "https://upload.wikimedia.org/wikipedia/commons/thumb/3/3c/Stonehenge2007_07_30.jpg/1280px-Stonehenge2007_07_30.jpg",
    "sources": [
      "https://en.wikipedia.org/wiki/Stonehenge"
    ]
  },
  {
    "name": "Sultan Qaboos Grand Mosque",
    "lat": 23.58389,
    "lon": 58.38917,
    "category": "religious",
    "country": "Oman",
    "local_name": "جامع السلطان قابوس الأكبر",
    "note": "Oman's largest mosque, striking white marble",
    "image": "https://upload.wikimedia.org/wikipedia/commons/thumb/d/d7/Sultan_Qaboos_Grand_Mosque_%281%29.jpg/1280px-Sultan_Qaboos_Grand_Mosque_%281%29.jpg",
    "sources": [
      "https://en.wikipedia.org/wiki/Sultan_Qaboos_Grand_Mosque"
    ]
  },
  {
    "name": "Sydney Opera House",
    "lat": -33.8568,
    "lon": 151.2153,
    "category": "landmark",
    "country": "Australia",
    "note": "Shell-roofed performing arts centre on Sydney Harbour",
    "image": "https://upload.wikimedia.org/wikipedia/commons/thumb/a/a0/Sydney_Australia._%2821339175489%29.jpg/1280px-Sydney_Australia._%2821339175489%29.jpg",
    "sources": [
      "https://en.wikipedia.org/wiki/Sydney_Opera_House"
    ]
  },
  {
    "name": "Sümela Monastery",
    "lat": 40.69,
    "lon": 39.65833,
    "category": "religious",
    "country": "Turkey",
    "local_name": "Sümela Manastırı",
    "note": "4th-century cliffside monastery in the Pontic Mountains",
    "image": "https://upload.wikimedia.org/wikipedia/commons/thumb/d/db/Sumela_From_Across_Valley.JPG/1280px-Sumela_From_Across_Valley.JPG",
    "sources": [
      "https://en.wikipedia.org/wiki/Sümela_Monastery"
    ]
  },
  {
    "name": "Taj Mahal",
    "lat": 27.1739,
    "lon": 78.0421,
    "category": "monument",
    "country": "India",
    "local_name": "ताजमहल",
    "note": "White marble mausoleum on the Yamuna River in Agra",
    "image": "https://upload.wikimedia.org/wikipedia/commons/thumb/1/1d/Taj_Mahal_%28Edited%29.jpeg/1280px-Taj_Mahal_%28Edited%29.jpeg",
    "sources": [
      "https://en.wikipedia.org/wiki/Taj_Mahal"
    ]
  },
  {
    "name": "Tate Modern",
    "lat": 51.5078,
    "lon": -0.0994,
    "category": "museum",
    "country": "United Kingdom",
    "note": "Modern art museum in a former Bankside power station",
    "image": "https://upload.wikimedia.org/wikipedia/commons/thumb/0/00/Tate_Modern_-_Bankside_Power_Station.jpg/1280px-Tate_Modern_-_Bankside_Power_Station.jpg",
    "sources": [
      "https://en.wikipedia.org/wiki/Tate_Modern"
    ]
  },
  {
    "name": "Tatev Monastery",
    "lat": 39.3797,
    "lon": 46.2478,
    "category": "religious",
    "country": "Armenia",
    "local_name": "Տաթևի վանք",
    "note": "9th-century gorge-edge monastery, reached by aerial tramway",
    "image": "https://upload.wikimedia.org/wikipedia/commons/thumb/7/7c/Monasterio_de_Tatev%2C_Armenia%2C_2016-10-01%2C_DD_77-79_HDR.jpg/1280px-Monasterio_de_Tatev%2C_Armenia%2C_2016-10-01%2C_DD_77-79_HDR.jpg",
    "sources": [
      "https://en.wikipedia.org/wiki/Tatev_Monastery"
    ]
  },
  {
    "name": "Teide",
    "lat": 28.2721,
    "lon": -16.642,
    "category": "mountain",
    "country": "Spain",
    "local_name": "El Teide",
    "note": "Active volcano, Spain's highest peak at 3715 m",
    "image": "https://upload.wikimedia.org/wikipedia/commons/thumb/a/a5/Roque_Cinchado_und_Teide.jpg/1280px-Roque_Cinchado_und_Teide.jpg",
    "sources": [
      "https://en.wikipedia.org/wiki/Teide"
    ]
  },
  {
    "name": "Temple of Anahita",
    "lat": 34.50139,
    "lon": 47.96028,
    "category": "ruins",
    "country": "Iran",
    "local_name": "پرستشگاه‌ آناهیتا",
    "note": "Ancient temple ruins ascribed to Anahita, Kermanshah",
    "image": "https://upload.wikimedia.org/wikipedia/commons/thumb/3/31/%D9%85%D8%B9%D8%A8%D8%AF_%D8%A2%D9%86%D8%A7%D9%87%DB%8C%D8%AA%D8%A7_%DA%A9%D9%86%DA%AF%D8%A7%D9%88%D8%B1_3_soheilchehri.jpg/1280px-%D9%85%D8%B9%D8%A8%D8%AF_%D8%A2%D9%86%D8%A7%D9%87%DB%8C%D8%AA%D8%A7_%DA%A9%D9%86%DA%AF%D8%A7%D9%88%D8%B1_3_soheilchehri.jpg",
    "sources": [
      "https://en.wikipedia.org/wiki/Temple_of_Anahita,_Kangavar"
    ]
  },
  {
    "name": "Temple of Seti I",
    "lat": 26.185,
    "lon": 31.91889,
    "category": "religious",
    "country": "Egypt",
    "note": "Pharaonic temple holding the Abydos King List",
    "image": "https://upload.wikimedia.org/wikipedia/commons/thumb/9/99/Temple_of_Seti_I_at_Abydos_-_panoramio_%283%29.jpg/1280px-Temple_of_Seti_I_at_Abydos_-_panoramio_%283%29.jpg",
    "sources": [
      "https://en.wikipedia.org/wiki/Temple_of_Seti_I_(Abydos)"
    ]
  },
  {
    "name": "Temple of the Inscriptions",
    "lat": 17.4836,
    "lon": -92.0468,
    "category": "archaeological-site",
    "country": "Mexico",
    "local_name": "Templo de las Inscripciones",
    "note": "Palenque pyramid with Pakal's tomb and Maya glyphs",
    "image": "https://upload.wikimedia.org/wikipedia/commons/thumb/b/bc/Tumba_de_pakal%2C_Chiapas.JPG/1280px-Tumba_de_pakal%2C_Chiapas.JPG",
    "sources": [
      "https://en.wikipedia.org/wiki/Temple_of_the_Inscriptions"
    ]
  },
  {
    "name": "The Burnt City",
    "lat": 30.59528,
    "lon": 61.32639,
    "category": "ruins",
    "country": "Iran",
    "local_name": "شهر سوخته",
    "note": "Bronze Age city ruins on the Helmand, southeast Iran",
    "image": "https://upload.wikimedia.org/wikipedia/commons/thumb/8/86/C20R1002.jpg/1280px-C20R1002.jpg",
    "sources": [
      "https://en.wikipedia.org/wiki/Shahr-e_Sukhteh"
    ]
  },
  {
    "name": "The Motherland Calls",
    "lat": 48.7425,
    "lon": 44.53694,
    "category": "monument",
    "country": "Russia",
    "local_name": "Родина-мать зовёт!",
    "note": "Sword-raising memorial to the Battle of Stalingrad",
    "image": "https://upload.wikimedia.org/wikipedia/commons/thumb/3/3d/Mamayev_Kurgan_Volgograd.jpg/1280px-Mamayev_Kurgan_Volgograd.jpg",
    "sources": [
      "https://en.wikipedia.org/wiki/The_Motherland_Calls"
    ]
  },
  {
    "name": "Throne of Solomon",
    "lat": 36.60317,
    "lon": 47.23595,
    "category": "ruins",
    "country": "Iran",
    "local_name": "تخت سلیمان",
    "note": "Sasanian fire temple ruins, northwest Iran",
    "image": "https://upload.wikimedia.org/wikipedia/commons/thumb/c/c8/Takht-e-soleiman-1.jpg/1280px-Takht-e-soleiman-1.jpg",
    "sources": [
      "https://en.wikipedia.org/wiki/Takht-e_Soleym%C4%81n"
    ]
  },
  {
    "name": "Timbuktu",
    "lat": 16.77348,
    "lon": -3.00742,
    "category": "city",
    "country": "Mali",
    "local_name": "تنبكت",
    "note": "Medieval center of Islamic learning and Saharan trade",
    "image": "https://upload.wikimedia.org/wikipedia/commons/thumb/2/2d/Djenguereber_Mosque%2C_Timbuktu%2C_Mali.jpg/1280px-Djenguereber_Mosque%2C_Timbuktu%2C_Mali.jpg",
    "sources": [
      "https://en.wikipedia.org/wiki/Timbuktu"
    ]
  },
  {
    "name": "Timgad",
    "lat": 35.4849,
    "lon": 6.4683,
    "category": "ruins",
    "country": "Algeria",
    "local_name": "تيمقاد",
    "note": "Well-preserved Roman town built on a grid plan",
    "image": "https://upload.wikimedia.org/wikipedia/commons/thumb/c/ce/Timgad_%2815685889550%29.jpg/1280px-Timgad_%2815685889550%29.jpg",
    "sources": [
      "https://en.wikipedia.org/wiki/Timgad"
    ]
  },
  {
    "name": "Todai-ji",
    "lat": 34.68917,
    "lon": 135.83972,
    "category": "religious",
    "country": "Japan",
    "local_name": "東大寺",
    "note": "World's largest bronze Buddha in a vast wooden hall",
    "image": "https://upload.wikimedia.org/wikipedia/commons/thumb/2/2f/T%C5%8Ddai-ji_Kon-d%C5%8D.jpg/1280px-T%C5%8Ddai-ji_Kon-d%C5%8D.jpg",
    "sources": [
      "https://en.wikipedia.org/wiki/T%C5%8Ddai-ji"
    ]
  },